projectName,plotBearing,street,locality,lat,lon,CertificateNo,project_Village,project_Taluka,project_District,project_Division,project_State,pincode,
GREEN CITY 3,33/1/33/2/1,Not Available,Not Available,21.017065,79.058966,P50500000005,Gawasi Manapur,Nagpur (Rural),Nagpur,Nagpur,MAHARASHTRA,441108,
UNNATHI WOODS PHASE VII A,246 247/1 247/2,Ghodbunder Road,Anand Nagar,19.268511,72.97367,P51700000002,Thane (M Corp.),Thane,Thane,Konkan,MAHARASHTRA,400615,
FORTUNE DP NANO,668/1,Not Available,Not Available,20.396363,72.878712,P49500000001,Not Available,Daman,Daman,DAMAN & DIU,DAMAN & DIU,396210,
MAYFAIR VISHWARAJA,S No 204/1A 226/1/2 226/2A,Ganesh Mandir Road,Near Ganesh Mandir,19.3009417389246,73.2185819703309,P51700000001,Titwala,Kalyan,Thane,Konkan,MAHARASHTRA,421605,
MERIDIAN MYSTIC,78/78A,Plot No 78/78A,Nerul Navi Mumbai,19.0189340394745,73.0242332588955,P51700002065,Navi Mumbai (M Corp.),Thane,Thane,Konkan,MAHARASHTRA,400706,
FORTUNE PARADISE,460,Not Available,Not Available,20.423412,72.846426,P49500000002,Not Available,Daman,Daman,DAMAN & DIU,DAMAN & DIU,396210,
MIDTOWN,"59/3-1,59/1,61/4",Not Available,Not Available,20.413868,72.878467,P49500000003,Not Available,Daman,Daman,DAMAN & DIU,DAMAN & DIU,396210,
SAINATHVILLA Phase II,46,Not Available,Not Available,19.858827,75.442968,P51500011537,Sundarwadi,Aurangabad,Aurangabad,Aurangabad,MAHARASHTRA,431001,
Pramukh Sneh Phase 2,71/1/1/3,Krishna Co.Road,Near Empress Mall,20.2553175914107,73.0111288016052,P49600000001,Not Available,Dadra & Nagar Haveli,Dadra & Nagar Haveli,DADRA & NAGAR HAVELI,DADRA & NAGAR HAVELI,396230,
SIGNATURE HEIGHTS,PLOT NO 88 AND 89,KILVANI NAKA,SILVASSA,20.27876,73.008038,P49600000048,Not Available,Dadra & Nagar Haveli,Dadra & Nagar Haveli,DADRA & NAGAR HAVELI,DADRA & NAGAR HAVELI,396230,
FORTUNE-9,"34-1,34-2,34-4,34-4-A",TIN BATTI,NEAR TIN BATTI CIRCLE,18.4883779,74.1021282,P49500000005,Not Available,Daman,Daman,DAMAN & DIU,DAMAN & DIU,396210,
NANDHA RESIDENCY,"GAT NO 393 , KOREGAON MUL ,URLIKANCHAN ",PUNE-SOLAPUR ROAD,URLIKANCHAN,18.4883779,74.1021282,P52100012200,Koregaon Mul,Haveli,Pune,Pune,MAHARASHTRA,412202,
SHIVAM PARK,7/74,Not Available,Not Available,21.056573,79.071419,P50500002280,Shankarpur,Nagpur (Rural),Nagpur,Nagpur,MAHARASHTRA,441108,
Param Residency,357/2,Vapi kachigam Road,Kachigam,19.0778737,72.9055627,P49500000004,Not Available,Daman,Daman,DAMAN & DIU,DAMAN & DIU,396215,
VIKI HEIGHTS,5867,Not Available,Not Available,19.078961,72.906927,P51800002451,Kurla,Kurla,Mumbai Suburban,Konkan,MAHARASHTRA,400077,
ROYAL RESIDENCY,"32, 33",Not Available,Not Available,21.101756,79.073969,P50500000348,Nagpur (M Corp.),Nagpur (Urban),Nagpur,Nagpur,MAHARASHTRA,440015,
DEEP LAXMI DEVELOPERS,892/1,Not Available,Not Available,21.1117002,79.0729793,P49600000002,Not Available,Dadra & Nagar Haveli,Dadra & Nagar Haveli,DADRA & NAGAR HAVELI,DADRA & NAGAR HAVELI,396230,
SHIVNERI APPARTMENT,48,Not Available,Not Available,18.991096,75.730914,P52300000176,Ashti,Ashti,beed,Aurangabad,MAHARASHTRA,414203,
PRAMUKH GARDENS PHASE 2,882/1/1,KILVANI ROAD,OPP. YOGI HOSPITAL,20.2800172493618,73.0104592903518,P49600000004,Not Available,Dadra & Nagar Haveli,Dadra & Nagar Haveli,DADRA & NAGAR HAVELI,DADRA & NAGAR HAVELI,396230,
Diamond One ,Plot Number 19/1 City Survey Number 389 Mouza Dhantoli,Not Available,Not Available,21.130339,79.079207,P50500001314,Nagpur (M Corp.),Nagpur (Urban),Nagpur,Nagpur,MAHARASHTRA,440010,
AANAND SHILP APARTMENT,PLOT NO 06 CTS NO 17825,Not Available,Not Available,19.879709,75.325572,P51500001870,Aurangabad (M Corp.),Aurangabad,Aurangabad,Aurangabad,MAHARASHTRA,431001,
VRUNDAVAN,"233/3,233/4,233/5,234 AND 237",Not Available,Not Available,20.282335,73.01107,P49600000010,Not Available,Dadra & Nagar Haveli,Dadra & Nagar Haveli,DADRA & NAGAR HAVELI,DADRA & NAGAR HAVELI,396230,
Immense Heights,7678,Mumbai Pune Old Highway,Talegaon Dabhade Pune,18.71558,73.669579,P52100006356,Talegaon Dabhade (R),Mawal,Pune,Pune,MAHARASHTRA,410506,
SAHJANAND PARK,SURVEY NO 38/2P 38/3P 38/4P 38/5 39P,Silvassa Khanvel Road,Khanvel,20.281795,73.009575,P49600000051,Not Available,Dadra & Nagar Haveli,Dadra & Nagar Haveli,DADRA & NAGAR HAVELI,DADRA & NAGAR HAVELI,396230,
SAMRIDDHI,"184/1,2 185/12",indralok,indralok,19.1353171946507,72.9671033718751,P51700001636,Mira-Bhayandar (M Corp.),Thane,Thane,Konkan,MAHARASHTRA,401105,
THE ADDRESS-PHASE-1,"342/1-A,311,354/1","VILLAGE KATHIRIA,DUNETHA",NEAR COAST GUARD,19.2855196,72.8692967,P49500000006,Not Available,Daman,Daman,DAMAN & DIU,DAMAN & DIU,396210,
Sharvari Serenity,"Plot no. 2 , 3 ,  10 , 11 / Survey no. 156 A",Not Available,Not Available,19.688898,73.56128,P51600000394,Igatpuri (M Cl),Igatpuri,Nashik,Nashik,MAHARASHTRA,422403,
Pramukh Sangam Phase 2,"30/2/3/1,30/2/3/2/1,30/2/3/2,30/2/3/3",Krishna Co.Road,NEAR BYOUR LADY OF HELP ENGLISH SCOOL,20.2568018,73.0110181,P49600000008,Not Available,Dadra & Nagar Haveli,Dadra & Nagar Haveli,DADRA & NAGAR HAVELI,DADRA & NAGAR HAVELI,396230,
Dwarka Nagari,Gat No. 48,15.00 M Wide Road,Beside Old MIDC,18.426998,76.555207,P52400000234,Baswantpur,Latur,Latur,Aurangabad,MAHARASHTRA,413512,
THE COSMOPOLIS,"138/9,138/11",Not Available,Not Available,18.520144,73.932921,P52100001149,Hadapsar,Haveli,Pune,Pune,MAHARASHTRA,411028,
Shri Krishna Kunj CHS Ltd,CTS NO 202 202/1 To 33,R R Thakur Marg,Maharaj Bhavan,19.138023,72.856293,P51800001311,Andheri,Andheri,Mumbai Suburban,Konkan,MAHARASHTRA,400060,
OMs Premraj Enclave,165/5/B,Not Available,Not Available,20.025984,73.811911,P51600010735,Nashik (M Corp.),Nashik,Nashik,Nashik,MAHARASHTRA,422003,
Sunrise Residency,"Survey No. 1087/1 , 1088",Not Available,Not Available,20.262869,72.941242,P49600000020,Not Available,Dadra & Nagar Haveli,Dadra & Nagar Haveli,DADRA & NAGAR HAVELI,DADRA & NAGAR HAVELI,396230,
PLATINUM GREEN,"PLOT NO. R3, CTS 638",Not Available,Not Available,21.106608,79.016668,P50500006086,Nagpur (M Corp.),Nagpur (Urban),Nagpur,Nagpur,MAHARASHTRA,440036,
ANURON SEVEN,SR.NO. 26/3 PLOT NO.1 HISSA NO. 3,Not Available,Not Available,19.097531,74.745709,P52200000566,Ahmadnagar (M Corp.),Nagar,Ahmednagar,Nashik,MAHARASHTRA,414003,
SHASHIKALP CLASSIC,SURVEY NO. 71/1/1/2,SAMARVARNI,SILVASSA,20.255681,73.009667,P49600000031,Not Available,Dadra & Nagar Haveli,Dadra & Nagar Haveli,DADRA & NAGAR HAVELI,DADRA & NAGAR HAVELI,396230,
saiprakash appartment,65/2/2,Not Available,Not Available,20.527374,76.209616,P50000001993,Sundar khed (CT),Buldana,Buldana,Amravati,MAHARASHTRA,443001,
THE ADDRESS-PHASE 2,"S N 311, 342/1-A, 354/1",COST GOURD ROAD,KATHIRIA AND DUNETHA,20.5284028,76.21025,P49500000008,Not Available,Daman,Daman,DAMAN & DIU,DAMAN & DIU,396210,
ROYAL BLISS,533/3, MAIN ROAD,VILLAGE DUNETHA,19.0964492,74.7395591,P49500000007,Not Available,Daman,Daman,DAMAN & DIU,DAMAN & DIU,396210,
RONAK RESIDENCY,SR.NO. 388-1 PLOT NO. 16-17-18,Not Available,Not Available,19.0964492,74.7395591,P52200002076,Ahmadnagar (M Corp.),Nagar,Ahmednagar,Nashik,MAHARASHTRA,414001,
Yogi Milan Phase 2,261/1,SUB JAIL ROAD,NR. BALAJI TEMPLE,20.2799930317985,72.9920424669342,P49600000006,Not Available,Dadra & Nagar Haveli,Dadra & Nagar Haveli,DADRA & NAGAR HAVELI,DADRA & NAGAR HAVELI,396230,
Rambaug,5626A 1 1,Not Available,Not Available,17.9824172,74.511286,P52700000048,Phaltan (M Cl),Phaltan,Satara,Pune,MAHARASHTRA,415523,
NAVALAKHA RITZ,S NO 42 AND S NO 43,Not Available,Not Available,18.559884,73.941599,P52100002664,KHARADI,Haveli,Pune,Pune,MAHARASHTRA,411014,
PRABHAT APPARTMENT,SURVEY NO 326/2/2/1/1/1,Not Available,Not Available,20.280572,73.006395,P49600000005,Not Available,Dadra & Nagar Haveli,Dadra & Nagar Haveli,DADRA & NAGAR HAVELI,DADRA & NAGAR HAVELI,396230,
Shiv Elite Phase I,Kh No 66-1 and 66-2,Not Available,Not Available,21.055139,79.066096,P50500009639,Shankarpur,Nagpur (Rural),Nagpur,Nagpur,MAHARASHTRA,441108,
Four Seasons Private Residences Phase - 1,1H/136,Dr E Moses,Worli,18.99563,72.820807,P51900002789,GSouth-400018,Ward GSouth,Mumbai City,Konkan,MAHARASHTRA,400018,
RAGHUNATH NAGAR,90,Not Available,Not Available,19.197646,77.300888,P51100015354,Nanded Waghala (M Corp.),Nanded,Nanded,Aurangabad,MAHARASHTRA,431601,
GOVINDA SKY,BENODA-7,Not Available,Not Available,20.910319,77.776212,P50300000544,Amravati (M Corp.),Amravati,Amravati,Amravati,MAHARASHTRA,444606,
SDPL Aashray Dabha,260 - 18/3,Dabha,Dabha,21.1704241394964,78.9980001905915,P50500014329,Nagpur (M Corp.),Nagpur (Urban),Nagpur,Nagpur,MAHARASHTRA,440023,
The Crown Greens,Plot 7 International Biotech Park Rajiv Gandhi IT-BT Park MIDC Phase 2 Hinjawadi Pune 411057,MIDC Phase 2,"Maan, Hinjawadi",18.5917633224859,73.7076783915405,P52100001864,Man,Mulshi,Pune,Pune,MAHARASHTRA,411057,
ARIHANT A & B WING,"105/1/1, 105/5/1",Not Available,Not Available,18.5973002,73.6925236,P49600000042,Not Available,Dadra & Nagar Haveli,Dadra & Nagar Haveli,DADRA & NAGAR HAVELI,DADRA & NAGAR HAVELI,396230,
RIDDHI SIDDHI,SURVEY NO 59/1,Not Available,Not Available,20.109709,77.11569,P50200002611,Washim (M Cl),Washim,Washim,Amravati,MAHARASHTRA,444505,
ANANDVANN,"607/2, 629",MUMBAI AGRA MAHAMARG,IGATPURI,19.8260159989312,73.6741761536591,P51600000085,Gondedumala,Igatpuri,Nashik,Nashik,MAHARASHTRA,422403,
Laxmi Chayya,54 - 55 - 56 / 206/A/3/2,Not Available,Not Available,20.109037,73.8301437,P51600008182,Nashik,Nashik,Nashik,Nashik,MAHARASHTRA,422004,
KOHINOOR PRESTIGE,SURVEY NO 344 HISSA 12A1/2,Not Available,Not Available,16.9904,73.317469,P52800004038,Nachane (CT),Ratnagiri,Ratnagiri,Konkan,MAHARASHTRA,415612,
FLORENZA VILLAS,GUT NO 42 GOLWADI WALUJ LINK ROAD,New Paithan Waluj Link Road,Golwadi Village,19.848946,75.276947,P51500002341,Aurangabad (M Corp.),Aurangabad,Aurangabad,Aurangabad,MAHARASHTRA,431005,
Gokul,Survey No 38,Vrindavan Marg,Vrindavan,21.011052930933,79.0128810862061,P50500000854,Wagdara (536084),Hingna,Nagpur,Nagpur,MAHARASHTRA,441122,
Vasukamal Samruddhi,"311/1A, Plot no.1,2,3,4",N,Jalgaon,21.023487,75.564887,P49900000069,Jalgaon (M Corp.),Jalgaon,Jalgaon,Nashik,MAHARASHTRA,425001,
nakshatra,108,Not Available,Not Available,19.1101334,73.297175,P51700005959,Kudsavare,Ambarnath,Thane,Konkan,MAHARASHTRA,421503,
OM APARTMENT,PLOT NO 1 AND 2 SURVEY NO 135,Not Available,Not Available,19.1101334,73.297175,P51600001180,Nashik,Nashik,Nashik,Nashik,MAHARASHTRA,422002,
DGS HEIGHTS,"206, 206/1 TO 15",AAREY ROAD,GOREGAON EAST,19.1648109,72.8532715,P51800000052,Borivali,Borivali,Mumbai Suburban,Konkan,MAHARASHTRA,400063,
"JAS LUXURIA , J-1",293,Not Available,Not Available,20.273106,72.994921,P49600000029,Not Available,Dadra & Nagar Haveli,Dadra & Nagar Haveli,DADRA & NAGAR HAVELI,DADRA & NAGAR HAVELI,396230,
NISARG GARDEN,SURVEY NO 30/2 / LAYOUT PLOT NO 1 TO 31,Not Available,Not Available,20.699751,77.012291,P50100000101,Chandur,Akola,Akola,Amravati,MAHARASHTRA,444001,
Dwarika Nagari,S.No. 50/3B/2 to 21,Tilekar Nagar,Tilekar Nagar,18.446558,73.880548,P52100002029,kondhwa BK,Haveli,Pune,Pune,MAHARASHTRA,411048,
SRI MADHAV RESIDENCY,"396/1,396/6,398,399/1",Not Available,Not Available,18.4507298,73.8914013,P49600000041,Not Available,Dadra & Nagar Haveli,Dadra & Nagar Haveli,DADRA & NAGAR HAVELI,DADRA & NAGAR HAVELI,396193,
Yogi Milan Phase 3,261/1,SUB JAIL ROAD,NR. BALAJI TEMPLE,20.2794287068375,72.9923176872413,P49600000022,Not Available,Dadra & Nagar Haveli,Dadra & Nagar Haveli,DADRA & NAGAR HAVELI,DADRA & NAGAR HAVELI,396230,
Patel Complex,106/1,Bhamti,Moti Daman,20.4080193,72.8343123,P49500000014,Not Available,Daman,Daman,DAMAN & DIU,DAMAN & DIU,396210,
Construction of 14 Rowhouses at Waddhamna Nagpur,116/1 to 5,Not Available,Not Available,21.1474483,78.9684057,P50500012638,Waddhamna,Hingna,Nagpur,Nagpur,MAHARASHTRA,441110,
Riverside County,"Survey No 34/0,36/1,36/2A,2B,36/3,36/4,39/1,131/0",Not Available,Not Available,18.7712536,73.1792125,P52000000650,Washiwali,Pen,Raigarh,Konkan,MAHARASHTRA,402107,
SPRING CITY,185/1 186/1/1 186/3 187/1 187/2 188 189,SILVASSA,SILVASSA,20.241791,73.008471,P49600000033,Not Available,Dadra & Nagar Haveli,Dadra & Nagar Haveli,DADRA & NAGAR HAVELI,DADRA & NAGAR HAVELI,396230,
RADHA RAMAN APARTMENT,PLOT NO 17/18 S.NO 352/1/2/3,Not Available,Not Available,21.024766,75.55743,P49900000128,Jalgaon (M Corp.),Jalgaon,Jalgaon,Nashik,MAHARASHTRA,425001,
BELLA VITA,"GAT NO 1338/1, 1339",Not Available,Not Available,18.573108,73.964451,P52100000783,WAGHOLI,Haveli,Pune,Pune,MAHARASHTRA,412207,
K T PREMIA,"136/5,136/6,136/7,136/12,165/4","ANJURPHATA ROAD, NEAR TORRENT POWER OFFICE, OPP SHANKAR DYEING",KAMATGHAR BHIWANDI,19.2781148326622,73.0477115220208,P51700002939,Bhiwandi (M Corp.),Bhiwandi,Thane,Konkan,MAHARASHTRA,421302,
SPRING DIVISHA,"S.NO 17/3-A PLOT NO 2 PART,3,4,8,9,10",Not Available,Not Available,19.2812547,73.0482912,P50100000435,Akoli Bk.,Akola,Akola,Amravati,MAHARASHTRA,444001,
Sumangal Vihar,Plot No.1 ,Not Available,Not Available,21.096665,79.004335,P50500007042,Isasani (CT),Hingna,Nagpur,Nagpur,MAHARASHTRA,440016,
THANEKAR PARKLAND,58/2,Not Available,Not Available,19.169827,73.221583,P51700000644,Badlapur (M Cl),Ambarnath,Thane,Konkan,MAHARASHTRA,421503,
"Site No.124, Datala, New Chandrapur",124,datala,datala,19.96913889,79.25662778,P50900000159,Datala,Chandrapur,Chandrapur,Nagpur,MAHARASHTRA,442401,
Abhishek Luxuria,477,Khariwad,Dunetha,20.4267761,72.8470073,P49500000016,Not Available,Daman,Daman,DAMAN & DIU,DAMAN & DIU,396210,
RAAJ SWAPNAPURTI,"GUT NO.94, TISGAON, CIDCO WALUJ MAHANGAR, AURANGABAD",Not Available,Not Available,19.859908,75.268353,P51500000594,Tisgaon,Aurangabad,Aurangabad,Aurangabad,MAHARASHTRA,431001,
SRI KONARK PLAZA,"77/2/1, 77/5",Not Available,Not Available,19.8640215,75.263948,P49600000025,Not Available,Dadra & Nagar Haveli,Dadra & Nagar Haveli,DADRA & NAGAR HAVELI,DADRA & NAGAR HAVELI,396230,
Royal Empire,"Plot no 14,13 Survey no 363/2",Not Available,Not Available,20.039643,73.850776,P51600005059,Nashik (M Corp.),Nashik,Nashik,Nashik,MAHARASHTRA,422003,
SAI AURA,"237/1/1/1,237/1/2,236/1/1",SUB JAIL ROAD,ULTAN FALIYA,20.28,72.98,P49600000003,Not Available,Dadra & Nagar Haveli,Dadra & Nagar Haveli,DADRA & NAGAR HAVELI,DADRA & NAGAR HAVELI,396230,
"Construction of 29 HIG Bunglow at Waddhamna,Nagpur",Survey no 142 154 155,Not Available,Not Available,21.0735488,78.9613486,P50500000774,Hingna,Hingna,Nagpur,Nagpur,MAHARASHTRA,441110,
The HUB,97 P,Not Available,Not Available,21.0735488,78.9613486,P51500005443,Shendra Kamangar,Aurangabad,Aurangabad,Aurangabad,MAHARASHTRA,431154,
ROONGTA CHITRAKOOT APARTMENT," S NO 97 11 13 15, PLOT NO 1",PETHE NAGAR ROAD,INDIRA NAGAR,19.9545725388623,73.7799229,P51600001657,Nashik,Nashik,Nashik,Nashik,MAHARASHTRA,422009,
AKSHAR GREENS,"161/1/1/1 , 161/1/1/2 , 161/1/31/ , 163/2",Not Available,Not Available,20.263558,72.998581,P49600000009,Not Available,Dadra & Nagar Haveli,Dadra & Nagar Haveli,DADRA & NAGAR HAVELI,DADRA & NAGAR HAVELI,396230,
LUXURIA,"Layout Plot No. 14, Nazul Plot No. 6/1,7/1,12,13,14/14, Nazul Sheet No. 68-80",Not Available,Not Available,20.70138,77.006363,P50100001467,Akola (M Corp.),Akola,Akola,Amravati,MAHARASHTRA,444001,
Pratham Yash Residency,"SURVEY NO 296 HISSA NO 6,5,3/2",Not Available,Not Available,18.608427,73.911237,P52100000071,LOHGAON,Haveli,Pune,Pune,MAHARASHTRA,411047,
Deluxe Apartments,Final Plot No. 66/5,3rd Road,Santacruz E,19.0766197343045,72.8435671574587,P51800000819,Andheri,Andheri,Mumbai Suburban,Konkan,MAHARASHTRA,400055,
Shree Gajanan Estate,Survey no 22/1 A,Not Available,Not Available,19.0803885,72.8468571,P50100000965,Kaulkhed (530030),Akola,Akola,Amravati,MAHARASHTRA,444001,
NIKETAN DREAMS BUILDING 1,SURVEY NO.418/1,VILLAGE DUNETHA,NANI DAMAN,20.426899,72.84747,P49500000018,Not Available,Daman,Daman,DAMAN & DIU,DAMAN & DIU,396210,
JANAI - BALAJI APARTMENTS,"Plot No. E, Survey No.33-35/3, City Survey No.492/2",Wardha Road,Chhatrapati nagar,21.106452,79.072725,P50500007644,Nagpur (M Corp.),Nagpur (Urban),Nagpur,Nagpur,MAHARASHTRA,440015,
Bliss Studio,Gut No 102 Plot No 38 to 67,Not Available,Not Available,18.919512,73.32609,P52000000003,Tadwadi,Karjat,Raigarh,Konkan,MAHARASHTRA,410201,
SKY COURT,"SUB PLOT NO.2, SURVEY NO.47/2, 47/3B, 47/3A VILLAGE SAVEDI TALUKA AND DIST AMHEDNAGAR",Not Available,Not Available,19.115352,74.734457,P52200000077,Ahmadnagar (M Corp.),Nagar,Ahmednagar,Nashik,MAHARASHTRA,414003,
TIRUPATI RESIDENCY,"263, 262/3, 264/4",BALAJI MANDIR ROAD,BALAJI MANDIR,20.281272,72.991911,P49600000007,Not Available,Dadra & Nagar Haveli,Dadra & Nagar Haveli,DADRA & NAGAR HAVELI,DADRA & NAGAR HAVELI,396230,
HORIZON HEIGHTS B WING,135/3 AND 135/4,AMLI,SILVASSA,20.2832883593687,73.0036851343933,P49600000021,Not Available,Dadra & Nagar Haveli,Dadra & Nagar Haveli,DADRA & NAGAR HAVELI,DADRA & NAGAR HAVELI,396230,
TULSI RESIDENCY,67/1,"67/1,RINGANWADA MAIN ROAD",RINGANWADA,20.408027,72.870866,P49500000020,Not Available,Daman,Daman,DAMAN & DIU,DAMAN & DIU,396210,
NANIKS ASHTAVINAYAK VRINDAVAN,3-3A,Om Nagar,Nara,21.200683,79.084103,P50500013013,Nagpur (M Corp.),Nagpur (Urban),Nagpur,Nagpur,MAHARASHTRA,440030,
Nakshtra Residency,442,Chikhli Road,Chkhli Road,20.526216,76.179977,P50000006509,Yelgaon,Buldana,Buldana,Amravati,MAHARASHTRA,443001,
kASTURI HEIGHT ,235/153/2/02,Not Available,Not Available,21.150653,79.1294516,P50500004982,Nagpur (M Corp.),Nagpur (Urban),Nagpur,Nagpur,MAHARASHTRA,440008,
SunShine Residency,"CTS Number 3603, S.No.599A, Plot No.75, Sahney Sujan Park, Lullanagar, Bibwewadi, Pune-411037",Not Available,Not Available,18.484141,73.88787,P52100000738,Pune (M Corp.),Pune City,Pune,Pune,MAHARASHTRA,411037,
Ramchintan Park,Gut No 13 P Plot No 42,Aurangabad,Aurangabad,19.884007,75.288688,P51500006207,Aurangabad (M Corp.),Aurangabad,Aurangabad,Aurangabad,MAHARASHTRA,431003,
AANUSHREE RESIDENCY,"SR. NO. 10/2, WADALA SHIVAR PLOT NO. 1 TO 8",Not Available,Not Available,19.979954,73.797244,P51600000075,Indiranagar,Nashik,Nashik,Nashik,MAHARASHTRA,422006,
SHREE NARAYANA CLASSIC,PLOT NO 3 SHREE NARAYAN NAGAR MOUZA PARSODI CTS NO 221,Not Available,Not Available,20.844483,79.322919,P50500000583,Umred (M Cl),Umred,Nagpur,Nagpur,MAHARASHTRA,441203,
SAIDARSHAN RESIDENCY,346,Not Available,Not Available,18.728224,76.392175,P52300014086,Ambajogai (Rural),Ambejogai,beed,Aurangabad,MAHARASHTRA,431517,
Bliss Complex,"S No 99 Plot No 1,2",Nagar-Solarpur Road,Maliwada,19.084310434824,74.7516975673882,P52200007387,Ahmadnagar (M Corp.),Nagar,Ahmednagar,Nashik,MAHARASHTRA,414001,
HARI LILA,262/1,Not Available,Not Available,21.0977049,79.1294516,P49600000032,Not Available,Dadra & Nagar Haveli,Dadra & Nagar Haveli,DADRA & NAGAR HAVELI,DADRA & NAGAR HAVELI,396230,
SHREE LAXMI MILESTONE,"NMC HOUSE NO 3285 CTS NO 231/2 MOUZA DIGHORI KH NO 72,73/4 NARSALA ROAD KIRTI NAGAR",NARSALA ROAD,DIGHORI,21.113889,79.138685,P50500000800,Nagpur (M Corp.),Nagpur (Urban),Nagpur,Nagpur,MAHARASHTRA,440034,
Aathley Sankul ,"1526A,1526B,15261,15262,15263,15264,15265,15266,15267,1527,1528,,1529A,1529B,15291,15292",Not Available,Not Available,16.997253,73.293707,P52800000018,Rahataghar,Ratnagiri,Ratnagiri,Konkan,MAHARASHTRA,415612,
Manmeet Blossom,122/2/1A,Not Available,Not Available,17.629884,75.92767,P52600002721,Solapur (M Corp.),Solapur North,Solapur,Pune,MAHARASHTRA,413001,
Naman Vihar,"1-A,1-B,2-A,2-B,3-A,6-B,7-A,7-B,8-A,8-B",Not Available,Not Available,21.017581,77.821614,P50300003113,Nandgaon peth,Amravati,Amravati,Amravati,MAHARASHTRA,444901,
SILVER OAK PLAZA,5 AND 6,Not Available,Not Available,20.980703,77.755995,P50300001947,Amravati (M Corp.),Amravati,Amravati,Amravati,MAHARASHTRA,444603,
SHIVAM HEIGHTS,"1/1/1 , 1/1/2",Not Available,Not Available,20.243175,73.012625,P49600000023,Not Available,Dadra & Nagar Haveli,Dadra & Nagar Haveli,DADRA & NAGAR HAVELI,DADRA & NAGAR HAVELI,396230,
HIBISCUS GARDEN,34/1/C,Not Available,Not Available,21.012487,79.053322,P50500012509,Gawasi Manapur,Nagpur (Rural),Nagpur,Nagpur,MAHARASHTRA,441108,
Sukruti Pinnacle,Gat no. 22 part plot no. 2,Not Available,Not Available,21.018191,75.53875,P49900000226,Jalgaon (M Corp.),Jalgaon,Jalgaon,Nashik,MAHARASHTRA,425001,
SAI NAGAR PHASE 2 K WING,"198/1,200/3,200/5,204/2/1",MEGHWAD ROAD,MASAT,21.0202718,79.049145,P49600000019,Not Available,Dadra & Nagar Haveli,Dadra & Nagar Haveli,DADRA & NAGAR HAVELI,DADRA & NAGAR HAVELI,396230,
ROSE GARDEN,RUI / KH NO 23/2 AND 23/3,Not Available,Not Available,18.5052428,73.7661129,P50500003460,Rui,Nagpur (Rural),Nagpur,Nagpur,MAHARASHTRA,441108,
Tirupati Imperials,"Survey No.11/1 Plot No.39,40",Not Available,Not Available,18.5052428,73.7661129,P51000001829,Digras,Digras,Yavatmal,Amravati,MAHARASHTRA,445203,
Yashwin Jeevan,"Survey number 23 3, 24 1A, 24 1B",Not Available,Not Available,18.562396,73.757154,P52100000011,Sus,Mulshi,Pune,Pune,MAHARASHTRA,411021,
MAHADEV RESIDENCY NAROLI,22/5,Naroli Road,Village Dhapsa,20.282866,72.939797,P49600000038,Not Available,Dadra & Nagar Haveli,Dadra & Nagar Haveli,DADRA & NAGAR HAVELI,DADRA & NAGAR HAVELI,396235,
NISRAG HERITAGE,MOUJE MALKAPUR / SHEET NO 69 / SURVEY NO 23/1 / NAZUL PLOT NO 4/53 4/54,Not Available,Not Available,20.6899426,77.0199806,P50100005408,Malkapur (CT),Akola,Akola,Amravati,MAHARASHTRA,444001,
Mohan Areca,SURVEY NO 4/HISSA NO 1P,NEAR MOHAN PALMS,"KATRAP, SHIRGAON",19.160777,73.227184,P51700000829,Badlapur (M Cl),Ambarnath,Thane,Konkan,MAHARASHTRA,421503,
JAS Exotica Phase II,Survey No 292-1,Not Available,Not Available,20.275268,72.993708,P49600000030,Not Available,Dadra & Nagar Haveli,Dadra & Nagar Haveli,DADRA & NAGAR HAVELI,DADRA & NAGAR HAVELI,396230,
R M Dhariwal Greens Yavatmal Phase 1,"Plot No 1, S No 30/1, 30/2, 30/3, 30/4/2",Dhamangaon Road Bye - Pass,Yavatmal,20.409105,78.14471,P51000009219,Yavatmal (M Cl),Yavatmal,Yavatmal,Amravati,MAHARASHTRA,445001,
Acropolis,112/2/1 and 112/2/2,AKSHARA SCHOOL ROAD,NEAR BHUMKAR CHOWK,18.606144228462,73.7452360644959,P52100000088,Wakad,Mulshi,Pune,Pune,MAHARASHTRA,411057,
OMICRON ASPIRE,GUT NO. 14/PART,Not Available,Not Available,18.6066628,73.7524673,P51500004987,Aurangabad (M Corp.),Aurangabad,Aurangabad,Aurangabad,MAHARASHTRA,431007,
SHREE SAI APARTMENT,PLOT NO 3 CTS NO 8,MOUZA RAJAPETH,AMBIKA NAGAR,18.6066628,73.7524673,P50500014110,Nagpur (M Corp.),Nagpur (Urban),Nagpur,Nagpur,MAHARASHTRA,444606,
The Courtyard Phase-I Building E and C,GLR Sy No 3,Tarakpur Road,Tarakpur,19.0952075,74.7495916,P52200000247,Ahmadnagar (M Corp.),Nagar,Ahmednagar,Nashik,MAHARASHTRA,414003,
PADMAVATI ENCLAVE PHASE 2,Srv No 2/2/1 of Village Khanvel,Not Available,Not Available,20.124054,73.069247,P49600000028,Not Available,Dadra & Nagar Haveli,Dadra & Nagar Haveli,DADRA & NAGAR HAVELI,DADRA & NAGAR HAVELI,396230,
Royale,12/1/1/2 P to 12/1/1/9 P,Pakhal Road,Wadala,19.9772952618056,73.7983822238905,P51600008360,Nashik,Nashik,Nashik,Nashik,MAHARASHTRA,422006,
MANORATH RESIDENCY PHASE - 2,"27/1/3,27/1/4/1",Sayli Road,Near Lions School,20.268959265619,73.0125010748993,P49600000013,Not Available,Dadra & Nagar Haveli,Dadra & Nagar Haveli,DADRA & NAGAR HAVELI,DADRA & NAGAR HAVELI,396230,
Bloomdale Building 04,17 Part 18 Part 19 Part 26 Part 27 Part 28 29 Part 30 Part 31 Part 35 Part 36 Part 39 Part Governmen,Wardha Road MIHAN,Khapri,21.042002,79.036509,P50500006445,Khapari,Nagpur (Rural),Nagpur,Nagpur,MAHARASHTRA,441108,
Viraj Shopping Mall,Sheet No 10C Survey No 107/2 Plot No 1,Not Available,Not Available,20.1072693,77.7165925,P51000001945,Digras,Digras,Yavatmal,Amravati,MAHARASHTRA,445203,
HORIZON RESIDENCY B BUILDING,24/1/1 AND 44/2,Balaji Mandir Road,Silvassa,20.281283,72.997295,P49600000036,Not Available,Dadra & Nagar Haveli,Dadra & Nagar Haveli,DADRA & NAGAR HAVELI,DADRA & NAGAR HAVELI,396230,
MEERA BHAKTI RESIDENCY,"1316/1, 1319/1, A WARD",RANKALA ROAD,A WARD,16.694999,74.209122,P53000000915,Kolhapur (M Corp.),Karvir,Kolhapur,Pune,MAHARASHTRA,416012,
HORIZON RESIDENCY C BUILDING,24/1/1 AND 44/2,Balaji Mandir Road,Silvassa,20.281804,72.997428,P49600000011,Not Available,Dadra & Nagar Haveli,Dadra & Nagar Haveli,DADRA & NAGAR HAVELI,DADRA & NAGAR HAVELI,396230,
SHAKAMBARI TERRACE,"SURVEY NO. 26/1, PLOT NO. 1",Not Available,Not Available,20.676286,77.043257,P50100002167,Malkapur (CT),Akola,Akola,Amravati,MAHARASHTRA,444005,
SUVARNABHOOMI,32/1 32/2,DONGARGAON,NAGPUR GRAMIN,20.886578,78.990881,P50500008330,Dongargaon (535927),Nagpur (Rural),Nagpur,Nagpur,MAHARASHTRA,440018,
BUSINESS SQUARE,CTS NO 7007/1,Not Available,Not Available,20.000416,73.769277,P51600000211,Nashik,Nashik,Nashik,Nashik,MAHARASHTRA,422002,
EKDANT SQUARE-RIDDHI WING,227/2/69/3/1,Not Available,Not Available,20.278818,73.00207,P49600000037,Not Available,Dadra & Nagar Haveli,Dadra & Nagar Haveli,DADRA & NAGAR HAVELI,DADRA & NAGAR HAVELI,396230,
RAM-TECH HEIGHTS,"4/5,64,8",Not Available,Not Available,20.713796,77.010749,P50100003967,Akola (M Corp.),Akola,Akola,Amravati,MAHARASHTRA,444001,
DHANBHOOMI 1,149/1 149/2,PANJRI,HINGNA TAH ,21.0735488,78.9613486,P50500008320,Panjari,Hingna,Nagpur,Nagpur,MAHARASHTRA,440023,
RAJESHREE TOWER,SURVEY NO 227/2P/72/2,Not Available,Not Available,21.0735488,78.9613486,P49600000018,Not Available,Dadra & Nagar Haveli,Dadra & Nagar Haveli,DADRA & NAGAR HAVELI,DADRA & NAGAR HAVELI,396230,
AKASHGANGA-C,1103/1,MANDAVGAN,LAXMINAGAR,18.618403,74.699759,P52200000214,Shrigonda(MCL),Shrigonda,Ahmednagar,Nashik,MAHARASHTRA,413701,
Bloomdale Bloomdale 07,17 Part 18 Part 19 Part 26 Part 27 Part 28 29 Part 30 Part 31 Part 35 Part 36 Part 39 Part Governmen,Wardha Road MIHAN,Khapri,21.04174,79.036553,P50500005448,Khapari,Nagpur (Rural),Nagpur,Nagpur,MAHARASHTRA,441108,
VEDANT RESIDENCY,729/1,Not Available,Not Available,21.0494858,79.043318,P49600000024,Not Available,Dadra & Nagar Haveli,Dadra & Nagar Haveli,DADRA & NAGAR HAVELI,DADRA & NAGAR HAVELI,396230,
GOLDSTAR DECENT HOMES,S NO 104 VILLAGE GHODBUNDER TALUKA AND DIST THANE NEAR MIRAROAD EAST,Not Available,Not Available,19.281762,72.881768,P51700000053,Mira-Bhayandar (M Corp.),Thane,Thane,Konkan,MAHARASHTRA,401107,
construction of 26 shops and 03 halls at khat road Bhandara,1165,Not Available,Not Available,19.2855196,72.8692967,P50600012640,Bhandara (M Cl),Bhandara,Bhandara,Nagpur,MAHARASHTRA,441904,
JALARAM DARSHAN PHASE II,163/2/1,Not Available,Not Available,19.2855196,72.8692967,P49600000014,Not Available,Dadra & Nagar Haveli,Dadra & Nagar Haveli,DADRA & NAGAR HAVELI,DADRA & NAGAR HAVELI,396230,
Ekdant Srushti Phase-1,Gut No 70 Plot No 20 To 22,Not Available,Not Available,19.883247,75.492301,P51500001817,Aurangabad (CB),Aurangabad,Aurangabad,Aurangabad,MAHARASHTRA,431001,
KARAN COMPLEX,393/1 AND 394/3,Kathiria,Nani Daman,20.4267761,72.8470073,P49500000033,Not Available,Daman,Daman,DAMAN & DIU,DAMAN & DIU,396210,
SHREE SHARDUL NEST,"PLOT NO 22 AND 23 SN.NO.162/1, 163/2 MOUJA- RAHATGAON",Not Available,Not Available,20.965891,77.785107,P50300007973,Amravati (M Corp.),Amravati,Amravati,Amravati,MAHARASHTRA,444603,
Bloomdale Building 08,17 Part 18 Part 19 Part 26 Part 27 Part 28 29 Part 30 Part 31 Part 35 Part 36 Part 39 Part Governmen,Wardha Road MIHAN,Khapri,21.041805,79.037136,P50500008536,Khapari,Nagpur (Rural),Nagpur,Nagpur,MAHARASHTRA,441108,
ARV RIVERDALE,153/1/15/1 153/1/15/3,Not Available,Not Available,21.0494858,79.043318,P49600000027,Not Available,Dadra & Nagar Haveli,Dadra & Nagar Haveli,DADRA & NAGAR HAVELI,DADRA & NAGAR HAVELI,396230,
BALAJI GEMS,"SURVEY NO 280/2/1 , 281/3/1",ULTAN FALIYA,SILVASSA,18.5573082,73.7878385,P49600000015,Not Available,Dadra & Nagar Haveli,Dadra & Nagar Haveli,DADRA & NAGAR HAVELI,DADRA & NAGAR HAVELI,396230,
Gini Viviana F Bldg Phase 2,Survey No 38-1 Balewadi Pune 411045,Not Available,Not Available,18.58003,73.768282,P52100000983,Baner,Haveli,Pune,Pune,MAHARASHTRA,411045,
TIRUPATI CITY PHASE IV,17/2,MAHARASHTRA,WASHIM,20.132275180092,77.1188881908894,P50200001506,Adgaon N. Kata,Washim,Washim,Amravati,MAHARASHTRA,444505,
Bloomdale Building 09,17 Part 18 Part 19 Part 26 Part 27 Part 28 29 Part 30 Part 31 Part 35 Part 36 Part 39 Part Governmen,Wardha Road MIHAN,Khapri,21.041655,79.036126,P50500006483,Khapari,Nagpur (Rural),Nagpur,Nagpur,MAHARASHTRA,441108,
Aurum,"Gut no No. 52/6 Plot No. 96, 103 Opp Janki Hotel , Garkheda, Aurangabad.",Not Available,Not Available,18.586059,73.736048,P51500001970,Aurangabad (M Corp.),Aurangabad,Aurangabad,Aurangabad,MAHARASHTRA,431001,
SAI KAWACH,290,Not Available,Not Available,18.586059,73.736048,P52200012033,Wadzari Kh.,Sangamner,Ahmednagar,Nashik,MAHARASHTRA,422611,
Athashri Xion,"SURVEY NO 15/5 AND 6 AND 7 AND 8, 16, 17/1, 17/2 /1 AND 2 , 17/3 , 18/1 AND 2",Not Available,Not Available,18.593395,73.745541,P52100000051,Hinjavadi (CT),Mulshi,Pune,Pune,MAHARASHTRA,411057,
Saffron Height,30/1/2,Not Available,Not Available,20.269179,72.979843,P49600000016,Not Available,Dadra & Nagar Haveli,Dadra & Nagar Haveli,DADRA & NAGAR HAVELI,DADRA & NAGAR HAVELI,396230,
Bloomdale Row House 5,17 Part 18 Part 19 Part 26 Part 27 Part 28 29 Part 30 Part 31 Part 35 Part 36 Part 39 Part ,Wardha Road MIHAN,Khapri,21.041871,79.036522,P50500007925,Khapari,Nagpur (Rural),Nagpur,Nagpur,MAHARASHTRA,441108,
SILVER CREST,16/1/12,Not Available,Not Available,18.6103179,73.7889689,P52100000641,Pimpri Chinchawad (M Corp.),Haveli,Pune,Pune,MAHARASHTRA,411017,
Vrindavan Garden,Survey No.13/Layout Plot No.2,Not Available,Not Available,18.6103179,73.7889689,P50100003137,Akola (M Corp.),Akola,Akola,Amravati,MAHARASHTRA,444001,
Pride Phoenix Building - A,"01, 02 Gut No 736",Jalna Road,Chikalthana,19.8687845013081,75.4027033720078,P51500000376,Aurangabad (M Corp.),Aurangabad,Aurangabad,Aurangabad,MAHARASHTRA,431001,
ANAND NAGAR,SURVEY NO 71/1/5,Not Available,Not Available,20.260735,73.005242,P49600000017,Not Available,Dadra & Nagar Haveli,Dadra & Nagar Haveli,DADRA & NAGAR HAVELI,DADRA & NAGAR HAVELI,396230,
Bloomdale Row House 6,17 Part 18 Part 19 Part 26 Part 27 Part 28 29 Part 30 Part 31 Part 35 Part 36 Part 39 Part ,Wardha Road MIHAN,Khapri,21.04159,79.037499,P50500007914,Khapari,Nagpur (Rural),Nagpur,Nagpur,MAHARASHTRA,441108,
FORTUNE PARK,GUT NO 104 ,SATARA,SATARA,19.845588,75.340503,P51500010032,Satara (CT),Aurangabad,Aurangabad,Aurangabad,MAHARASHTRA,431002,
TIRUPATI HOMES,"75/3K,75/3B,75/3D,75/3F",MEHKAR,MEHKAR,20.147854,76.583223,P50000002097,Mehkar (M Cl),Mehkar,Buldana,Amravati,MAHARASHTRA,443301,
Bloomdale Row House 7,17 Part 18 Part 19 Part 26 Part 27 Part 28 29 Part 30 Part 31 Part 35 Part 36 Part 39 Part ,Wardha Road MIHAN,Kahpri,21.04152,79.037848,P50500008161,Khapari,Nagpur (Rural),Nagpur,Nagpur,MAHARASHTRA,441108,
SAI ASPIRE,PLOT NO.131 CTS No. 17182  ,NEW OSMANPURA ROAD,AURANGABAD,19.8667570456654,75.3287320996933,P51500002358,Aurangabad (M Corp.),Aurangabad,Aurangabad,Aurangabad,MAHARASHTRA,431005,
Dhangra Residency C1 C2 F,146/2,Village Kadaiya,"Nani Daman

",20.4516976,72.8555887,P49500000034,Not Available,Daman,Daman,DAMAN & DIU,DAMAN & DIU,396210,
Bloomdale Duplex Home 3,17 Part 18 Part 19 Part 26 Part 27 Part 28 29 Part 30 Part 31 Part 35 Part 36 Part 39 Part ,Wardha Road MIHAN,Kahpri,21.042617,79.036669,P50500007843,Khapari,Nagpur (Rural),Nagpur,Nagpur,MAHARASHTRA,441108,
GREEN PARK,"PLOT NO. 13, SHEET NO. 24",Not Available,Not Available,21.0494858,79.043318,P50300011197,Amravati (M Corp.),Amravati,Amravati,Amravati,MAHARASHTRA,444601,
HARI SPARSH II,"S NO 306/1A/5, PLOT NO 11,12",Not Available,Not Available,21.0494858,79.043318,P51600000119,Bhagur Rural,Nashik,Nashik,Nashik,MAHARASHTRA,422502,
R M Dhariwal Township Tuljapur Plotting,S NO 185, Tuljapur Latur State Highway,Tuljapur,18.008713,76.078875,P52500009575,Tuljapur (M Cl),Tuljapur,Osmanabad,Aurangabad,MAHARASHTRA,413601,
NIRMAN DWARKAPURAM,408/2/1/A/B/C,MUMBAI-AGRA ROAD,DWARKA ANNEX,20.0011634216712,73.8017542233704,P51600001184,Nashik,Nashik,Nashik,Nashik,MAHARASHTRA,422011,
RASHI TRINITY,"SURVEY NO. 29/3, PLOT NO. 1",Not Available,Not Available,20.895354,77.74445,P50300007591,Amravati (M Corp.),Amravati,Amravati,Amravati,MAHARASHTRA,444605,
Bloomdale Duplex Home 4,17 Part 18 Part 19 Part 26 Part 27 Part 28 29 Part 30 Part 31 Part 35 Part 36 Part 39 Part ,Wardha Road MIHAN,Khapri,21.042697,79.036149,P50500007215,Khapari,Nagpur (Rural),Nagpur,Nagpur,MAHARASHTRA,441108,
Bloomdale Duplex Home 6,17 Part 18 Part 19 Part 26 Part 27 Part 28 29 Part 30 Part 31 Part 35 Part 36 Part 39 Part ,"Wardha Road, MIHAN",Khapri,21.042301,79.037457,P50500009336,Khapari,Nagpur (Rural),Nagpur,Nagpur,MAHARASHTRA,441108,
GANESH SOCIETY PHASE 1,23/2/1/1,Not Available,Not Available,21.0494858,79.043318,P49600000012,Not Available,Dadra & Nagar Haveli,Dadra & Nagar Haveli,DADRA & NAGAR HAVELI,DADRA & NAGAR HAVELI,396230,
Adinath Suvastu,Gut No 57P Plot No 3,Not Available,Not Available,21.0494858,79.043318,P51500005255,Satara (CT),Aurangabad,Aurangabad,Aurangabad,MAHARASHTRA,431007,
PANDIT CORNER,GUT NO.106/1 PLOT NO. 31 NIMKHEDI SHIVAR JALGAON,Not Available,Not Available,21.0494858,79.043318,P49900000250,Jalgaon (M Corp.),Jalgaon,Jalgaon,Nashik,MAHARASHTRA,425001,
SHREE GURU PUSHP AMRUT PARIWAR,PLOT NO. 26B 27A 27B 28A 28B,Not Available,Not Available,21.0494858,79.043318,P50300010072,Amravati (M Corp.),Amravati,Amravati,Amravati,MAHARASHTRA,444603,
"Niketan Dreams Building 2 - Wing C,D and Building 3 Wing E","417/5, 418/1, 418/2 and 419/2",Dunetha Main Road,Dunetha,20.3973736,72.8327991,P49500000038,Not Available,Daman,Daman,DAMAN & DIU,DAMAN & DIU,396210,
VEDANT PERIDOT,"PLOT NO 2, CTS NO 1949, SHEET NO 88/71, MOUZA AMBAZARI",Not Available,Not Available,21.1157472,79.0447306,P50500009166,Nagpur (M Corp.),Nagpur (Urban),Nagpur,Nagpur,MAHARASHTRA,440022,
JANKI RESIDENCY,PLOT NO 10 S/NO 162/1 A 162/1 B AND 163/2 ,Not Available,Not Available,19.8787869,75.365128,P50300008578,Amravati (M Corp.),Amravati,Amravati,Amravati,MAHARASHTRA,444606,
SAI SANKUL PHASE-II,"PLOT NO 50, 51 GUT NO 1/117",Not Available,Not Available,19.884216,75.391297,P51500004795,Aurangabad (M Corp.),Aurangabad,Aurangabad,Aurangabad,MAHARASHTRA,431003,
Nayantara Presidency Phase 1,881/1A/1,pethe nagar,Bombay Agra Highway,19.972880004824,73.7754421287243,P51600000245,Nashik,Nashik,Nashik,Nashik,MAHARASHTRA,422002,
SIDDHI TOWER,SURVEY NO 91/1/2,DAYAT FALIYA,OPP FIRE STATION SILVASSA,20.285803,72.995086,P49600000034,Not Available,Dadra & Nagar Haveli,Dadra & Nagar Haveli,DADRA & NAGAR HAVELI,DADRA & NAGAR HAVELI,396230,
VEDANT EMERALD PHASE 2,"PLOT NO 100-101, CTS NO 24, SHEET NO 257/4, MOUZA SONEGAON",Not Available,Not Available,21.101171,79.047829,P50500012141,Nagpur (M Corp.),Nagpur (Urban),Nagpur,Nagpur,MAHARASHTRA,440022,
Aaradhya Residency,"Plot no 1 Sno 84,125/A,125/B",Not Available,Not Available,21.1157472,79.0447306,P52200000608,Ahmadnagar (M Corp.),Nagar,Ahmednagar,Nashik,MAHARASHTRA,414001,
Chhoriya Township Plotting Layout Paranda,S No 12/2 At Paranda,Paranda  To  Ruee  Road,Paranda,21.1157472,79.0447306,P52500009268,Paranda (rural),Paranda,Osmanabad,Aurangabad,MAHARASHTRA,413502,
KALPATARU RESIDENCY,SURVEY NO 186 AND 187/1,Not Available,Not Available,21.1157472,79.0447306,P49600000026,Not Available,Dadra & Nagar Haveli,Dadra & Nagar Haveli,DADRA & NAGAR HAVELI,DADRA & NAGAR HAVELI,396230,
SHAYONA ORNATE,"SURVEY NO 77/1 , 77/2/1 , 85/1 AND 85/2",KILVANI ROAD,SILVASSA,19.8505,75.3521,P49600000035,Not Available,Dadra & Nagar Haveli,Dadra & Nagar Haveli,DADRA & NAGAR HAVELI,DADRA & NAGAR HAVELI,396230,
JOG CHARITABLE MEDICAL RELIF FUND HOSPITAL AND RACHANASHRI COMMERCIALS,PLOT NO 67 SHEET NO 68 B,Opposite Amravati Tahashil Office,Amravati City.,19.8505,75.3521,P50300004928,Amravati (M Corp.),Amravati,Amravati,Amravati,MAHARASHTRA,444601,
Sai Bhadra Residency,CTS No 12486/13  12486/17 Plot no 45  46,Not Available,Not Available,19.879514,75.348259,P51500001293,Aurangabad (M Corp.),Aurangabad,Aurangabad,Aurangabad,MAHARASHTRA,431005,
Nayantara Presidency Phase 2,881/1A/1,Mumbai Agra highway,Rajiv nagar,19.9723969312418,73.7756613247459,P51600000079,Nashik (M Corp.),Nashik,Nashik,Nashik,MAHARASHTRA,422002,
Nayantara Presidency Phase 3,881/1A/1,Mumbai Agra highway,Rajiv nagar,19.9728694746239,73.7758046324527,P51600000133,Nashik,Nashik,Nashik,Nashik,MAHARASHTRA,422002,
"Construction of 42 MIG Ts at Surabardi S.No.20/1,20/2",20/1 and 20/2,Not Available,Not Available,21.1443791,78.9429666,P50500000920,Surabardi,Nagpur (Rural),Nagpur,Nagpur,MAHARASHTRA,440023,
Evergreen Heights,CTS No.185,Not Available,Not Available,19.206852,73.014004,P51700000095,Thane (M Corp.),Thane,Thane,Konkan,MAHARASHTRA,400605,
Nayantara Presidency Phase 4,881/1A/1,Mumbai Agra highway,Rajiv nagar,19.9729699181487,73.7752727151585,P51600000098,Nashik (M Corp.),Nashik,Nashik,Nashik,MAHARASHTRA,422002,
SHIVNERI FORT,"PLOT NO.18, Survey no. 149/2",Not Available,Not Available,20.71888,78.569747,P50400000911,Sawangi (Meghe) (CT),Wardha,Wardha,Nagpur,MAHARASHTRA,442001,
HARIKUNJ,PLOT NO. 1,Not Available,Not Available,19.727808,75.29935,P51500000992,Farola,Paithan,Aurangabad,Aurangabad,MAHARASHTRA,431105,
PRIDE PHOENIX BUILDING D,PLOT 1 -2 GUT NO 736,Jalna Road,Chikalthana,19.8690115303138,75.4035938654007,P51500000852,Aurangabad (M Corp.),Aurangabad,Aurangabad,Aurangabad,MAHARASHTRA,431001,
Shree Hari Commercial Building Phase 1,Survey No. 65/3U1,Opposite OIDC Industrial Estate,Ringanwada,20.2417478,72.521616,P49500000043,Not Available,Daman,Daman,DAMAN & DIU,DAMAN & DIU,396210,
"BLOCK E, SRI RESIDENCY","SURVEY NO 153/1/18/2/3, 159/1/1/1, 160, 158/1, 159/1/1/P/1",Not Available,Not Available,20.262783,72.997303,P49600000046,Not Available,Dadra & Nagar Haveli,Dadra & Nagar Haveli,DADRA & NAGAR HAVELI,DADRA & NAGAR HAVELI,396230,
Anirudh Residency,"11 and 12 and S. No. 26-1, 27-2",Not Available,Not Available,21.110587,79.113981,P50500000760,Nagpur (M Corp.),Nagpur (Urban),Nagpur,Nagpur,MAHARASHTRA,440024,
PURVA RESIDENCY CONDOMINIUM,SURVEY NO. 181/1-A,Not Available,Not Available,21.1291499,79.1153367,P50300008611,Amravati (M Corp.),Amravati,Amravati,Amravati,MAHARASHTRA,444604,
PRIDE PHOENIX BUILDING B1-B2,PLOT 1 -2 GUT NO 736,Jalna Road,Chikalthana,19.8690619811597,75.4026872787537,P51500000331,Aurangabad (M Corp.),Aurangabad,Aurangabad,Aurangabad,MAHARASHTRA,431001,
R M Dhariwal Township Wardha Plotting,"S No 44/1 , 44/2, 44/3",Pandhan To  Dattapur To  Pavnar Road,Wardha - Bhivapur,20.770323,78.635232,P50400009975,Bhiwapur (534083),Wardha,Wardha,Nagpur,MAHARASHTRA,442111,
UTTARA RESIDENCY CONDOMINIUM,SURVEY NO 183/1 A PLOT NO 4,Not Available,Not Available,20.7726632,78.632781,P50300006488,Amravati (M Corp.),Amravati,Amravati,Amravati,MAHARASHTRA,444604,
MADHOORS ANANDAM,"38/A/1/1, 38/B, 38/C",Nasik Pune Road,Dwarka,18.4740393,73.9778634,P51600001270,Nashik (M Corp.),Nashik,Nashik,Nashik,MAHARASHTRA,422401,
Park Infinia Phase III,"214, 220, 221",Pune Saswad Road,Fursungi,18.4863062837208,73.9593421154831,P52100000084,Fursungi,Haveli,Pune,Pune,MAHARASHTRA,412308,
CASA LOTUS,6/334/1,Not Available,Not Available,21.085167,78.970715,P50500002363,Wanadongri,Hingna,Nagpur,Nagpur,MAHARASHTRA,441110,
"The Trees, Residential Phase 1",51/B,Pirojshanagar,Vikhroli East,19.093341,72.920127,P51800000165,Kurla,Kurla,Mumbai Suburban,Konkan,MAHARASHTRA,400079,
"Construction of 320 flats under HIGHS at MHADA City Empress Mill No.-5, Subhash Road, Nagpur. Ph I","101, 154, 155, 159",Not Available,Not Available,19.1025427,72.9254307,P50500012639,Nagpur (M Corp.),Nagpur (Urban),Nagpur,Nagpur,MAHARASHTRA,440001,
PRIDE PHOENIX BUILDING C1-C2,PLOT 1 -2 GUT NO 736,Jalna Road,Chikalthana,19.8690922516598,75.4031217966141,P51500000337,Aurangabad (M Corp.),Aurangabad,Aurangabad,Aurangabad,MAHARASHTRA,431001,
Madhoor Maitri,"S NO 25/11, PLOT NOS 12, 14, 15 AND 16",Near Vanvihar Colony,Mahatma Nagar,20.002778,73.749206,P51600001608,Nashik (M Corp.),Nashik,Nashik,Nashik,MAHARASHTRA,422007,
VIMACO RESIDENCY II,"PLOT NO. 20/1, SHEET NO. 13",Not Available,Not Available,20.862521,77.735584,P50300004204,Amravati (M Corp.),Amravati,Amravati,Amravati,MAHARASHTRA,444601,
SHIVAJI ENCLAVE - 2,"PLOT NO. 1 , 2 , S. NO. 31/1, MAUJE AKOLI AMRAVATI",AMRAVATI,AMRAVATI,20.894455,77.728813,P50300008036,Amravati (M Corp.),Amravati,Amravati,Amravati,MAHARASHTRA,444607,
PIONEER TULIP,PLOT NUMBER 9- CTS 648 MOUZA JAITALA,Not Available,Not Available,21.10653,79.022042,P50500000300,Nagpur (M Corp.),Nagpur (Urban),Nagpur,Nagpur,MAHARASHTRA,440016,
VENKATESHWARA GREENS,"4/1,4/3,4/4,4/5, KHOPEGAON,TQ.LATUR,DIST.LATUR",Not Available,Not Available,18.371789,76.560388,P52400001029,Khopegaon,Latur,Latur,Aurangabad,MAHARASHTRA,413531,
THE PALMS,Plot No- 14,Sector-50,Nerul,19.00971,73.01719,P51700000006,Navi Mumbai (M Corp.),Thane,Thane,Konkan,MAHARASHTRA,400706,
HARI AAKRUTI,"S No 484/3/1/2, Plot No 2,3,4,5",Bhabha Nagar,Kathe Galli,19.989739,73.795824,P51600000423,Nashik,Nashik,Nashik,Nashik,MAHARASHTRA,422011,
LAIJAI NAGARI,14 B,Not Available,Not Available,19.178857,77.265553,P51100005371,Wadi Bk.,Nanded,Nanded,Aurangabad,MAHARASHTRA,431605,
"EMPRESS ROYAL A, B, C, D",101/2,Not Available,Not Available,21.147623,79.09279,P50500011007,Nagpur (M Corp.),Nagpur (Urban),Nagpur,Nagpur,MAHARASHTRA,440018,
THE EMPIRE MALL,5/5A  5/5B,Not Available,Not Available,20.916232,77.753159,P50300010282,Amravati (M Corp.),Amravati,Amravati,Amravati,MAHARASHTRA,444601,
EMPRESS DREAMS ,102/2,Not Available,Not Available,21.147368,79.092165,P50500012169,Nagpur (M Corp.),Nagpur (Urban),Nagpur,Nagpur,MAHARASHTRA,440018,
PREET TOWER,GUT NO 99 PART,SHENDRA,SHENDRA,19.86343,75.477623,P51500002176,Shendra Kamangar,Aurangabad,Aurangabad,Aurangabad,MAHARASHTRA,431154,
HARI VASANT,"S No 4/2A,4/1B AND 4/2B/2",AASARAM BABU ASHRAM,GANGAPUR ROAD,20.0198515207585,73.7524506755326,P51600000534,Aanandwali,Nashik,Nashik,Nashik,MAHARASHTRA,422005,
EMPRESS ROYAL EFGH,101/2,Not Available,Not Available,21.147725,79.094756,P50500009773,Nagpur (M Corp.),Nagpur (Urban),Nagpur,Nagpur,MAHARASHTRA,440018,
Golden Eye,394/395,Not Available,Not Available,19.6974548,72.7141496,P99000003915,Shirgaon ,Palghar,Palghar,Konkan,MAHARASHTRA,401407,
SAI HEIGHTS,"SURVEY NO. 15, PLOT NO. 36",Not Available,Not Available,20.950434,77.765658,P50300002270,Amravati (M Corp.),Amravati,Amravati,Amravati,MAHARASHTRA,444603,
ORCHID,"PLOT NO. 30 ,31, 15840/90  , 15840/91",Not Available,Not Available,18.6277764,74.172438,P51500001044,Aurangabad (M Corp.),Aurangabad,Aurangabad,Aurangabad,MAHARASHTRA,431001,
SQUARE PARK 1,3960 2 1,Not Available,Not Available,18.67574,74.144078,P52100008111,Talegaon Dhamdhere,Shirur,Pune,Pune,MAHARASHTRA,412208,
ADARSH NIVARA,Plot No 147 148 149 S.No.110/1 A 110/1 B 110/1 110/2 110/3 110/4 111/1 111/2,Delhi gate to Court road,Choupatty Karanja,19.095923,74.732799,P52200001520,Ahmadnagar (CB),Nagar,Ahmednagar,Nashik,MAHARASHTRA,414001,
Kotak Royale,94/1 125/1,Tembhode Road,Tembhode,19.6935581,72.7655184,P99000017141,Palghar ,,Palghar,Palghar,Konkan,MAHARASHTRA,401404
PARIJAT SAHNIWAS,"SURVEY NO.733/2A/50 TPS-II,Plot No.87, FINAL PLOT NO.487",Not Available,Not Available,20.002731,73.755499,P51600005366,Nashik (M Corp.),Nashik,Nashik,Nashik,MAHARASHTRA,422005,
ORION VILLA - P1,"22/2 , 27/4/1/1",NAROLI CHAR RASTA,DHAPSA VILLAGE,20.2810282,72.943261,P49600000039,Not Available,Dadra & Nagar Haveli,Dadra & Nagar Haveli,DADRA & NAGAR HAVELI,DADRA & NAGAR HAVELI,396235,
Construction of 240 T/S under LIG,116/ 1 to 5,Not Available,Not Available,21.1474483,78.9684057,P50500000792,Waddhamna,Hingna,Nagpur,Nagpur,MAHARASHTRA,440023,
SHRIRAM PARK,40,Not Available,Not Available,21.1474483,78.9684057,P51500000615,Aurangabad (M Corp.),Aurangabad,Aurangabad,Aurangabad,MAHARASHTRA,431002,
SILVER PEARLSS,PLOT NO  1 CTS No. 15735-30-02,Not Available,Not Available,19.8505,75.3521,P51500001320,Aurangabad (M Corp.),Aurangabad,Aurangabad,Aurangabad,MAHARASHTRA,431005,
SKY HEIGHTS,227/2/69/1 233/1/3,Not Available,Not Available,20.282701,72.989957,P49600000040,Not Available,Dadra & Nagar Haveli,Dadra & Nagar Haveli,DADRA & NAGAR HAVELI,DADRA & NAGAR HAVELI,396230,
ORACLE LUXURIA,"NAZUL SHEET NUMBER 45D,PLOT NUMBER 11",Not Available,Not Available,20.413071,78.138157,P51000002580,Yavatmal (M Cl),Yavatmal,Yavatmal,Amravati,MAHARASHTRA,445001,
ORION IMPERIA,"732/1 , 732/3 , 732/4",Naroli Char Rasta,Naroli,20.276677,72.942534,P49600000043,Not Available,Dadra & Nagar Haveli,Dadra & Nagar Haveli,DADRA & NAGAR HAVELI,DADRA & NAGAR HAVELI,396235,
BALAJI,"12/1,12/2 AMALGAMATED PLOT NO 303 TO318",Not Available,Not Available,20.8812848,79.3113457,P50500011849,Bareja (ri),Umred,Nagpur,Nagpur,MAHARASHTRA,441203,
CHIRAG CITY,"3/1 PLOT NO 1,2,3",Not Available,Not Available,20.8812848,79.3113457,P50300010045,Amravati (M Corp.),Amravati,Amravati,Amravati,MAHARASHTRA,444606,
HARI VATIKA,"S NO 14C/B/1 , PLOT NO 9",Not Available,Not Available,20.8812848,79.3113457,P51600000220,SANSARI,Nashik,Nashik,Nashik,MAHARASHTRA,422401,
VARDHMAN EMPIRE,"138, 153",1ST DOMINIC LANE,ORLEM,19.195547,72.839962,P51800006315,Borivali,Borivali,Mumbai Suburban,Konkan,MAHARASHTRA,400067,
krishnakunj phase - I,14277/106,Not Available,Not Available,19.2072366,72.8348221,P51400001484,Jalna (M Cl),Jalna,Jalna,Aurangabad,MAHARASHTRA,431203,
PATNI COMMERCIAL COMPLEX PHASE-4,324/3 to 324/13 and 325/2/1-2 and 325 2a,Not Available,Not Available,20.111128,77.126991,P50200003441,Washim (M Cl),Washim,Washim,Amravati,MAHARASHTRA,444505,
KASTURI FLORIDUS,SURVEY NO 184/1/6,SILVASSA BHILAD ROAD,NAROLI MAIN ROAD,20.272331,72.993287,P49600000044,Not Available,Dadra & Nagar Haveli,Dadra & Nagar Haveli,DADRA & NAGAR HAVELI,DADRA & NAGAR HAVELI,396230,
Green Space Residency (Project-1) A Building,77,MIT College to Khandoba Mandir Road,Satara Parisar,19.8761653,75.3433139,P51500009980,Satara (CT),Aurangabad,Aurangabad,Aurangabad,MAHARASHTRA,431005,
HARI NAMAN,"S NO 238/A/1/2,3,4/18 AND PLOT NO 10",BYTCO HOSPITAL,Deolaligaon,19.94915725202,73.8390506129322,P51600000228,Deolaligaon,Nashik,Nashik,Nashik,MAHARASHTRA,422101,
KASTURI FLORIDUS,SURVEY NO 184/1/6,SILVASSA -BHILAD  MAIN ROAD,SILVASSA,20.272309,72.993218,P49600000045,Not Available,Dadra & Nagar Haveli,Dadra & Nagar Haveli,DADRA & NAGAR HAVELI,DADRA & NAGAR HAVELI,396230,
Siddhivinayak Appartment,Part of Khasra no 34/2 ,Not Available,Not Available,21.0752108,79.0772159,P50500001612,Beltarodi,Nagpur (Rural),Nagpur,Nagpur,MAHARASHTRA,440034,
SHIVARPAN,"Plot no. -2,Dubey layout,jaitala road,nagpur",Not Available,Not Available,21.096893,79.082606,P50500001454,Nagpur (M Corp.),Nagpur (Urban),Nagpur,Nagpur,MAHARASHTRA,440008,
HARI SPARSH PHASE III,S NO 306/2,Not Available,Not Available,21.150653,79.1294516,P51600000225,Bhagur Rural,Nashik,Nashik,Nashik,MAHARASHTRA,422502,
PEBBLE PARK D1,55 H NO 1/2/3,Not Available,Not Available,18.474154,73.936482,P52100000073,Hadapsar,Haveli,Pune,Pune,MAHARASHTRA,411028,
GARDEN VIEW ,46/3B,Shiv Road,Panchak,18.51875,73.931123,P51600000880,Jail Road,Nashik,Nashik,Nashik,MAHARASHTRA,422101,
PIONEER TAMARIND COURT- PLOT NO.3,"PLOT NO. 3 CTS NO. 504 AND 505 KH NO. 138,294/2 AND 295",Not Available,Not Available,18.51875,73.931123,P50500000429,Nagpur (M Corp.),Nagpur (Urban),Nagpur,Nagpur,MAHARASHTRA,440005,
EKDANT SQUARE SIDDHI WING,227/2/69/3/1,BALAJI TEMPLE ROAD,ULTAN FALIYA,20.2819875690064,72.9901636533546,P49600000047,Not Available,Dadra & Nagar Haveli,Dadra & Nagar Haveli,DADRA & NAGAR HAVELI,DADRA & NAGAR HAVELI,396230,
Sai Saroj,S N 180 and S N 154,"MIDC Pipe Line Road, Shinde Wasti,",Ravet,18.657929,73.755236,P52100000008,Pimpri Chinchawad (M Corp.),Haveli,Pune,Pune,MAHARASHTRA,412101,
The Auracon,Plot No 01 Survey No 3/P,Not Available,Not Available,18.6742528,73.7301331,P51500011621,Garkheda,Aurangabad,Aurangabad,Aurangabad,MAHARASHTRA,431009,
RAM SHEWALKAR PARISAR,PLOT NO 1 SHEET NO 3 C PLOT NO 6 SHEET NO 2 D,Not Available,Not Available,20.06253,78.946833,P51000009928,Wani (M Cl),Wani,Yavatmal,Amravati,MAHARASHTRA,445304,
JC TOWER,23/1/1 AND 23/2/1,MANDIR FALIYA,SILVASSA,20.281848,72.998737,P49600000049,Not Available,Dadra & Nagar Haveli,Dadra & Nagar Haveli,DADRA & NAGAR HAVELI,DADRA & NAGAR HAVELI,396230,
SHALWAK ELITE,"Plot no.11,corporation house no.190,CTS NO.358,Sheet No.34",Not Available,Not Available,21.13452,79.083735,P50500010251,Nagpur (M Corp.),Nagpur (Urban),Nagpur,Nagpur,MAHARASHTRA,440012,
Vithai Apartments,Plot No.12,Not Available,Not Available,19.17924,77.319015,P51100002164,Nanded Waghala (M Corp.),Nanded,Nanded,Aurangabad,MAHARASHTRA,431602,
TARA RESIDENCY,"NEW SHEET NO 55,SURVEY NO 7381",Not Available,Not Available,19.9905645,79.262297,P50900011550,Chandrapur (M Cl),Chandrapur,Chandrapur,Nagpur,MAHARASHTRA,442402,
SHREE BALAJI RESIDENCY,SURVEY NO 97 /5,AMLI,BALAJI TOWNSHIP,19.9905645,79.262297,P49600000050,Not Available,Dadra & Nagar Haveli,Dadra & Nagar Haveli,DADRA & NAGAR HAVELI,DADRA & NAGAR HAVELI,396230,
RANWARA APPARTMENT,"17,18,19/SURVEY NO 14/2/17,18,19",Street 1,Shankar Nagar,20.402985,78.121806,P51000005291,Yavatmal (M Cl),Yavatmal,Yavatmal,Amravati,MAHARASHTRA,445001,
Shhraddha Vishwa,87/A/B/27,Near State Bank Colony-II,Bhavani Peth,17.6900645735296,75.9169155881745,P52600000065,Solapur (M Corp.),Solapur North,Solapur,Pune,MAHARASHTRA,413002,
The Best Residency,Plot No 2 Survey No 193/3 193/4,Not Available,Not Available,20.999598,77.756335,P50300008305,Amravati (M Corp.),Amravati,Amravati,Amravati,MAHARASHTRA,444603,
KASTURI APPARTMENTS,1/690-1/1,MIDC KALMESHWAR ROAD,JSW MAIN GATE,21.233813,78.905825,P50500000856,Kalmeshwar (MCL),Kalameshwar,Nagpur,Nagpur,MAHARASHTRA,441501,
kalyani classic,"19048/1/ 59,62",Not Available,Not Available,19.848934,75.3091483,P51500006528,Aurangabad (M Corp.),Aurangabad,Aurangabad,Aurangabad,MAHARASHTRA,431010,
A. M. Residency,110,MAZGAON,NEXT TO DIAMOND JUBILEE SCHOOL,18.9701884,72.8459619,P51900000070,E-400010,Ward E,Mumbai City,Konkan,MAHARASHTRA,400010,
SHREE APPARTMENT,PLOT NO 4B AND 5A SN.NO.4/1A MOUJA SHEGAON,BARSKAR NAGAR SHEGAON RAHATGAON ROAD,AMRAVATI,18.9701884,72.8459619,P50300015867,Amravati (M Corp.),Amravati,Amravati,Amravati,MAHARASHTRA,444603,
Tirumala Royal,Gut No 136,Not Available,Not Available,18.9701884,72.8459619,P51500002622,Satara (CT),Aurangabad,Aurangabad,Aurangabad,MAHARASHTRA,431010,
SAI SANSKRUTI,Sr. No. 7/2/2,NAROLI BHILAD ROAD,VILLAGE ATHAL,18.9701884,72.8459619,P49600000054,Not Available,Dadra & Nagar Haveli,Dadra & Nagar Haveli,DADRA & NAGAR HAVELI,DADRA & NAGAR HAVELI,396230,
Choudhary Bhuvi landmarks - I,"plot no 14, Gut no 140",Not Available,Not Available,19.8640215,75.263948,P51500004842,Tisgaon,Aurangabad,Aurangabad,Aurangabad,MAHARASHTRA,431136,
HARI KIRAN,PLOT NO. 23A/3B PLOT NO.1,VIHITGAON,VIHITGAON,19.9357483083625,73.8342947718259,P51600000349,VIHITGAON,Nashik,Nashik,Nashik,MAHARASHTRA,422101,
RAJ TOWNSHIP,"159/1, 159/2, 160, 162, 164/2 PART",Not Available,Not Available,20.863114,77.730789,P50300011855,Badnera,Amravati,Amravati,Amravati,MAHARASHTRA,444601,
"A3, Song of Joy, Geras Greensville2","S No 64,Sub plot 1-part. with recreational open space in common with completed and ongoing phases.",Grant Road,Kharadi,18.557463,73.957995,P52100001789,Pune (M Corp.),Pune City,Pune,Pune,MAHARASHTRA,411014,
Sai Heritage,Saturna 3/1 plot no 1,Not Available,Not Available,20.900874,77.738524,P50300002028,Amravati (M Corp.),Amravati,Amravati,Amravati,MAHARASHTRA,444607,
Madhuban Residency Phase - 2,"Plot No. 01, 02 and 03, Survey No. 213/B",Not Available,Not Available,19.192062,77.285689,P51100003679,Wadi Bk.,Nanded,Nanded,Aurangabad,MAHARASHTRA,431605,
Neelyog Aashiyana,1069pt and 1028Bpt,Tank Lane,Sunderpada,19.2083147715332,72.8424597565529,P51800001136,Borivali,Borivali,Mumbai Suburban,Konkan,MAHARASHTRA,400067,
PRATIK TOWER,"1,2,3,4/ 54",AMRAVATI,AMRAVATI,20.920417,77.757372,P50300003680,Amravati (M Corp.),Amravati,Amravati,Amravati,MAHARASHTRA,444606,
HARI OM PHASE II,"S NO 97/4, 97/5",Indira Nagar,Indira Nagar,19.9557902589307,73.7811316011498,P51600000414,Nashik,Nashik,Nashik,Nashik,MAHARASHTRA,422006,
Orion Villa P2,22/1/1 -22/1/2,Naroli Char Rasta,Dhapsa Village,20.2856868,72.9374962,P49600000055,Not Available,Dadra & Nagar Haveli,Dadra & Nagar Haveli,DADRA & NAGAR HAVELI,DADRA & NAGAR HAVELI,396235,
SWEET HOME RESIDENCY,"13,14 SURVEY No. 20/1 B",Not Available,Not Available,20.412847,78.124958,P51000006064,Pimpalgaon (CT),Yavatmal,Yavatmal,Amravati,MAHARASHTRA,445001,
Morya Residency Phase II,"11385/131, 132 , 133",Not Available,Not Available,21.1813598,79.0136475,P51400002209,Jalna (M Cl),Jalna,Jalna,Aurangabad,MAHARASHTRA,431203,
AVISHKAR RESIDENCY,Plot No. 25 City Survey No. 17,Not Available,Not Available,21.183191,79.049389,P50500001173,Nagpur (M Corp.),Nagpur (Urban),Nagpur,Nagpur,MAHARASHTRA,440013,
"Constuction of 56 flats under EWS and 21 LIG at S.No. 11-12/3 at Mouza- Wanjara, Nagpur",11-12/3,Kamptee Road,North Nagpur,18.5083112,73.7908684,P50500002554,Nagpur (M Corp.),Nagpur (Urban),Nagpur,Nagpur,MAHARASHTRA,440026,
SELENA B,135 PLOT A,Not Available,Not Available,18.549277,73.793088,P52100000252,Pashan,Haveli,Pune,Pune,MAHARASHTRA,411021,
ARCH SAPTARANG,"Plot no. 28, 29",Pocile Colony,Padegaon,19.8955061039111,75.2801586065353,P51500002803,Aurangabad (M Corp.),Aurangabad,Aurangabad,Aurangabad,MAHARASHTRA,431001,
MANAV MANDIR,"PLOT NO 41 AND 42, MAUJE RAHATGAON, PRAGANE NANDGAON PETH, TQ. AND DIST. AMRAVATI",Not Available,Not Available,20.971629,77.770832,P50300007094,Amravati (M Corp.),Amravati,Amravati,Amravati,MAHARASHTRA,444606,
NAMAN VIHAR,"PLOT NO 04, GUT NO 105",Not Available,Not Available,19.8640215,75.263948,P51500005043,Tisgaon,Aurangabad,Aurangabad,Aurangabad,MAHARASHTRA,431102,
SIDDIVINAYAK HEIGHTS,"8 PLUS 9, G.NO192, PIMPRALA",Pimprala Road,Aasava Nagr,19.8640215,75.263948,P49900000600,Pimprala,Jalgaon,Jalgaon,Nashik,MAHARASHTRA,425001,
VARDVINAYAK RESIDENCY,"PLOT NO. 4, F.S. NO. 57/1, MAUJE SHEGAON, PRAGANE NANDGAON PETH, TQ AND DIST AMRAVATI",Not Available,Not Available,19.8640215,75.263948,P50300003761,Amravati (M Corp.),Amravati,Amravati,Amravati,MAHARASHTRA,444604,
SONAS TOWER,782,Not Available,Not Available,19.006946,72.841149,P51900001579,FSouth-400012,Ward FSouth,Mumbai City,Konkan,MAHARASHTRA,400012,
ARCH GULMOHAR,"Plot no. 26, 27",Not Available,Not Available,19.901088,75.357884,P51500012291,Aurangabad (M Corp.),Aurangabad,Aurangabad,Aurangabad,MAHARASHTRA,431001,
Krishna Heights,"Plot No. 1, S. No. 308/A/2/1, Pathardi",Not Available,Not Available,19.948259,73.76936,P51600002708,Nashik (M Corp.),Nashik,Nashik,Nashik,MAHARASHTRA,422010,
HARIHAR NAGAR ZARI PHASE - I,"68/2, 68/3, 68/4, 68/5",Not Available,Not Available,21.004494,79.058392,P50500000975,Zari,Nagpur (Rural),Nagpur,Nagpur,MAHARASHTRA,441108,
Krishna Pride,"Plot No 7, S No 308/A/2/7",Not Available,Not Available,19.986213,73.746065,P51600004084,Nashik (M Corp.),Nashik,Nashik,Nashik,MAHARASHTRA,422010,
Royal Crest,455,Not Available,Not Available,21.132393,79.081687,P50500001369,Nagpur (M Corp.),Nagpur (Urban),Nagpur,Nagpur,MAHARASHTRA,440001,
MEDHA CHSL,CTS NO 865,Jeevan Vidya Mission Marg,Vikas Nagar,19.205712,72.835798,P51800006437,Borivali,Borivali,Mumbai Suburban,Konkan,MAHARASHTRA,400067,
Ajinkya Palacia,CTS No 19184 19188,Not Available,Not Available,19.2072366,72.8348221,P51500006901,Aurangabad (M Corp.),Aurangabad,Aurangabad,Aurangabad,MAHARASHTRA,431001,
Anmol Nayantara City Two phase 2,777/3/4part 777/3/5,Govind nagar link road,Karmayogi nagar,19.9852069479153,73.772859611074,P51600000215,Nashik,Nashik,Nashik,Nashik,MAHARASHTRA,422002,
Growell Developers,"Kh. No. 19/1/2,19/2,20/1/2/3",Not Available,Not Available,20.922136,79.079227,P50500009945,Dongargaon (535927),Nagpur (Rural),Nagpur,Nagpur,MAHARASHTRA,441108,
SHREE BALAJI ENCLAVE,CTS NO 19048/1/50,Not Available,Not Available,19.859096,75.301861,P51500000945,Aurangabad (M Corp.),Aurangabad,Aurangabad,Aurangabad,MAHARASHTRA,431005,
J P Park,31/1/2/2/1. 31/1/2/2/4 plot no 1 to 5,Not Available,Not Available,21.0892687,79.0899245,P51600002589,Nashik (M Corp.),Nashik,Nashik,Nashik,MAHARASHTRA,422003,
Jayanti Nagari - VI,Kh.No.43/2,Not Available,Not Available,21.089487,79.084948,P50500001002,Besa,Nagpur (Rural),Nagpur,Nagpur,MAHARASHTRA,440034,
KRISHNA ENCLAVE,"CTS No 190 to 426, 795 to 799",Datta Mandir Road,Vakola,19.0803885,72.8468571,P51800000004,Andheri,Andheri,Mumbai Suburban,Konkan,MAHARASHTRA,400055,
Anand Enclave,"Final Plot No 37/2,3,4 TP-IV Ahmednagar",Balikashram Road,Sawedi ,19.122853,74.733445,P52200000178,Ahmadnagar (M Corp.),Nagar,Ahmednagar,Nashik,MAHARASHTRA,414003,
Pharande Park,Survey no 10B and 10C  / plot no 1 to 85,Not Available,Not Available,19.182913,77.281304,P51100002286,Wadi Bk.,Nanded,Nanded,Aurangabad,MAHARASHTRA,431605,
SHASHIKALP SAROVAR,SURVEY NO. 44/9,"SURVEY NO. 44/9, OPP. SWAMINARAYAN TEMPLE","ATHAL, SILVASSA",20.26858381,73,P49600000056,Not Available,Dadra & Nagar Haveli,Dadra & Nagar Haveli,DADRA & NAGAR HAVELI,DADRA & NAGAR HAVELI,396230,
ram tower,"sr.no.13/1, plot no.53",Not Available,Not Available,20.391724,78.092084,P51000013268,Lohara,Yavatmal,Yavatmal,Amravati,MAHARASHTRA,445001,
PARIJAT-A,PLOT NO  9-10-11 GUT NO 104 NAKSHTRAWADI,Not Available,Not Available,18.4967401,74.3004408,P51500008142,Aurangabad (M Corp.),Aurangabad,Aurangabad,Aurangabad,MAHARASHTRA,431001,
Shivdarshan,905 3,Not Available,Not Available,18.4967401,74.3004408,P52100002331,Yawat,Daund,Pune,Pune,MAHARASHTRA,412214,
NISRAG CORNER 2,SURVEY NO 8 / LAYOUT PLOT NO 10PART,Not Available,Not Available,20.726455,77.013685,P50100009881,Umerkhed,Akola,Akola,Amravati,MAHARASHTRA,444001,
SAHAS ICONIC,Plot No 30 and 32 Survey No 39 Mouza No 73  Mouza Nalwadi,NALWADI,NALWADI,20.75297,78.624276,P50400001086,NALWADI,Wardha,Wardha,Nagpur,MAHARASHTRA,442001,
HARI KRISHNA PHASE III,"S NO 44/2 , 44/16A, PLOT NO 4.5",Not Available,Not Available,19.944917,73.829333,P51600000375,Deolaligaon,Nashik,Nashik,Nashik,MAHARASHTRA,422101,
SAI SHRADDHA RESIDENCY,SURVEY NO 6/1 PLOT NO 5 AND SURVEY NO 7/1-A PLOT NO 6,Not Available,Not Available,20.9041,77.742977,P50300010853,Not Available,Amravati,Amravati,Amravati,MAHARASHTRA,444605,
AJIT HEIGHTS,"Plot No. 46,47,48,49 Gut No. 71",Not Available,Not Available,21.1372529,79.058856,P51500002177,Aurangabad (M Corp.),Aurangabad,Aurangabad,Aurangabad,MAHARASHTRA,431005,
SHRIRAM SAHANIWAS,"PLOT NO 6 KH NO. 83/1 , 83/2 .CST. NO. 319 , SHEET NO. 16,MOUZA BORGAON",NEAR DINSHAW FACTORY,BOREGAON RINGROAD SQUARE,21.1372529,79.058856,P50500000638,Nagpur (M Corp.),Nagpur (Urban),Nagpur,Nagpur,MAHARASHTRA,440010,
ROYAL PALMS APARTMENT,28/5 s.no.14/1a/2  ,kushtadham road ,rasnenagar ,19.125007,74.733818,P52200001966,Ahmadnagar (M Corp.),Nagar,Ahmednagar,Nashik,MAHARASHTRA,414001,
DISHA KUNJBAN PHASE 1,GUT  NO 52/2 PART WALUJ MAHANAGAR I,Not Available,Not Available,19.84764,75.237287,P51500001108,Wadgaon Kolhati (CT),Aurangabad,Aurangabad,Aurangabad,MAHARASHTRA,431136,
DEVI HEAVEN,PLOT NO 1 SURVEY NO 48/3,Not Available,Not Available,20.973424,77.75571,P50300002482,Amravati (M Corp.),Amravati,Amravati,Amravati,MAHARASHTRA,444603,
JP RADIANCE,24-25,Not Available,Not Available,21.070738,78.971782,P50500001509,Hingna,Hingna,Nagpur,Nagpur,MAHARASHTRA,441110,
ANANDRAJYAM PHASE 1,"553P, 554P, 562/2P",Not Available,Not Available,18.0585906,74.0754779,P52700003584,Ahire,Khandala,Satara,Pune,MAHARASHTRA,412802,
TROPICAL GREENS PHASE 1-A,90/3/1/1 89 90/5 90/6,KAMLI FALIYA,NEAR RING ROAD BEHIND ANAND NAGAR,20.259941,72.999563,P49600000060,Not Available,Dadra & Nagar Haveli,Dadra & Nagar Haveli,DADRA & NAGAR HAVELI,DADRA & NAGAR HAVELI,396230,
EKDANT RESIDENCY,"1 A, 1 B, 2 A",Not Available,Not Available,20.965074,77.78634,P50300010009,Amravati (M Corp.),Amravati,Amravati,Amravati,MAHARASHTRA,444604,
JP NAKSHTRA 1B,1B,Not Available,Not Available,21.06968,78.972363,P50500002283,Hingna,Hingna,Nagpur,Nagpur,MAHARASHTRA,441110,
JP NAKSHTRA 3B,3B,Not Available,Not Available,21.06965,78.972782,P50500001703,Hingna,Hingna,Nagpur,Nagpur,MAHARASHTRA,441110,
DISHA KUNJABAN PHASE 2,GUT NO 52/2 PART WALUJ MAHANGAR 1,Not Available,Not Available,21.0735488,78.9613486,P51500001997,Wadgaon Kolhati (CT),Aurangabad,Aurangabad,Aurangabad,MAHARASHTRA,431136,
SAI CITY,SURVEY NO 85/3,Not Available,Not Available,21.0735488,78.9613486,P50300003636,Amravati (M Corp.),Amravati,Amravati,Amravati,MAHARASHTRA,444602,
SHREESAMARTH APARTMENT,29 TO 33 S.NO.100/1TO12/3,NR GURU GOVIND SINGH COLLEGE,WADALA SHIWAR,21.0735488,78.9613486,P51600000748,Indiranagar,Nashik,Nashik,Nashik,MAHARASHTRA,422009,
R M Dhariwal Greens Yavatmal Phase - 2,"Plot No - 1 , S No - 30/1,30/2,30/3,30/4/2",Dhamangaon Road Bye - Pass,Yavatmal,20.409133,78.144674,P51000012173,Yavatmal (M Cl),Yavatmal,Yavatmal,Amravati,MAHARASHTRA,445001,
AMARSANKUL,"6,7",Not Available,Not Available,21.150653,79.1294516,P50500013286,Nagpur (M Corp.),Nagpur (Urban),Nagpur,Nagpur,MAHARASHTRA,440008,
DISHA KUNJABAN PHASE 3,GUT NO 52/2 PART WALUJ MAHANGAR 1,Not Available,Not Available,21.150653,79.1294516,P51500001537,Wadgaon Kolhati (CT),Aurangabad,Aurangabad,Aurangabad,MAHARASHTRA,431136,
Chlorophyll,34/3,Pancardclub Road,Baner,18.5562324975449,73.7734849276862,P52100002770,Baner,Haveli,Pune,Pune,MAHARASHTRA,411045,
INDRAPRASTH WING C,"30/11,14,15,21,22,24,29/1,23/2,22/1,2,3,5,9,20/6",100 FEET ROAD,BHAYANDER ,19.2183307,72.9780897000001,P51700002491,Mira-Bhayandar (M Corp.),Thane,Thane,Konkan,MAHARASHTRA,401105,
SARA PARIVARTAN - SECTOR B - PHASE 1,SURVEY NO. 234/2,Not Available,Not Available,19.955999,75.356807,P51500001468,Sawangi,Aurangabad,Aurangabad,Aurangabad,MAHARASHTRA,431008,
SHREE SAKHA SADAN,235/1/2,"235/1/2, NEAR JAIN TEMPLE","SILVASSA-VAPI ROAD, DADRA",20.2826561,73.0034633,P49600000059,Not Available,Dadra & Nagar Haveli,Dadra & Nagar Haveli,DADRA & NAGAR HAVELI,DADRA & NAGAR HAVELI,396230,
SAI VIDHI,SURVEY NO 181-4 182-1,Not Available,Not Available,20.969407,77.781813,P50300002917,Amravati (M Corp.),Amravati,Amravati,Amravati,MAHARASHTRA,444604,
R M Dhariwal Township Rashin Plotting,G NO 1497,Near Bhigwan To karjat Road,Rashin,18.552181,75.010145,P52200004323,Rashin,Karjat,Ahmednagar,Nashik,MAHARASHTRA,414403,
SARA GOKULDHAM - A BUILDING,GUT NO. 701,AIRPORT ROAD,CHIKALTHANA,19.867288,75.4005,P51500003721,Aurangabad (M Corp.),Aurangabad,Aurangabad,Aurangabad,MAHARASHTRA,431007,
ICON DREAMS,7,Not Available,Not Available,19.8765142,75.291653,P50300013147,Amravati (M Corp.),Amravati,Amravati,Amravati,MAHARASHTRA,444606,
SAI ENCLAVE,"66, 67",ZANDACHOWK AMLI ROAD,AMLI,20.2790119019099,73.0052035375733,P49600000063,Not Available,Dadra & Nagar Haveli,Dadra & Nagar Haveli,DADRA & NAGAR HAVELI,DADRA & NAGAR HAVELI,396230,
AARYAVARTA SECTOR 4 - B TO H,S No 980/1 plus 2/5 plus 980/1 plus 2/6 Part Plus 981/1 plus 2/3 part plus 981/1 plus 2/5 part ,.,Nashik,19.974713,73.763846,P51600002169,Nashik,Nashik,Nashik,Nashik,MAHARASHTRA,422009,
Tropical Greens Phase 1-B,"90/3/1/1, 89, 90/5, 90/6",kamlifalia,Behind Anand Nagar  near ring road,20.2604947744909,73.0002529121033,P49600000064,Not Available,Dadra & Nagar Haveli,Dadra & Nagar Haveli,DADRA & NAGAR HAVELI,DADRA & NAGAR HAVELI,396230,
Amrit Kalash,"P. No.11, CTS no 201, Mouza- Lendra",Not Available,Not Available,21.139145,79.067234,P50500001929,Nagpur (M Corp.),Nagpur (Urban),Nagpur,Nagpur,MAHARASHTRA,440010,
ATHAANG,95 1/A,Not Available,Not Available,17.731606,73.136276,P52800006626,Ladghar,Dapoli,Ratnagiri,Konkan,MAHARASHTRA,415712,
DISHA KUNJABAN PHASE 4,GUT NO 52/2 PART WALUJ MAHANAGAR 1,Not Available,Not Available,19.8389879,75.2471195,P51500001261,Wadgaon Kolhati (CT),Aurangabad,Aurangabad,Aurangabad,MAHARASHTRA,431136,
THE WATERFRONT,S NO 349/350  PLOT NO 4,Not Available,Not Available,19.8389879,75.2471195,P51600000543,,JALALPUR,Nashik,Nashik,Nashik,MAHARASHTRA,422222
NeetaShree Residency,72,Not Available,Not Available,20.964299,77.786501,P50300003006,Amravati (M Corp.),Amravati,Amravati,Amravati,MAHARASHTRA,444606,
HARI GOKULDHAM,13/3/1,NASHIK,NASHIK,19.8505,75.3521,P51600000323,Jail Road,Nashik,Nashik,Nashik,MAHARASHTRA,422101,
Mahalaxmi Alankar,"Gut No 70 , Plot 27-30",Not Available,Not Available,19.8505,75.3521,P51500001362,Aurangabad (M Corp.),Aurangabad,Aurangabad,Aurangabad,MAHARASHTRA,431005,
LAXMI NAGAR PHASE I,4 TO 12,Not Available,Not Available,19.9024787,75.4985521,P51500003708,Shendraban,Aurangabad,Aurangabad,Aurangabad,MAHARASHTRA,431210,
AARADHYA RESIDENCY,31/3A/7/1,Not Available,Not Available,19.939669,73.837272,P51600000297,Deolaligaon,Nashik,Nashik,Nashik,MAHARASHTRA,422101,
LAKSHMINARAYAN NAGAR,SURVEY NO 119/1 PLOT NO. 1,Not Available,Not Available,20.143299,76.573037,P50000013938,Mehkar (M Cl),Mehkar,Buldana,Amravati,MAHARASHTRA,443301,
Nakshatra A-B,54/8,Our Lady school Road Samrvarni,Krishna Company  Road,20.2583996,73.0139616,P49600000067,Not Available,Dadra & Nagar Haveli,Dadra & Nagar Haveli,DADRA & NAGAR HAVELI,DADRA & NAGAR HAVELI,396230,
SWASTIK SPIRA,75,Not Available,Not Available,18.683553,73.829685,P52100003757,Pimpri Chinchawad (M Corp.),Haveli,Pune,Pune,MAHARASHTRA,411062,
Laxmi Nagar Phase II,4 to 12 and 17 to 20,Shendraban,Shendra MIDC,18.6962184,73.7830861,P51500005250,Shendraban,Aurangabad,Aurangabad,Aurangabad,MAHARASHTRA,431210,
ATHARVA SANSKRUTI,PLOT NO 5 SR NO 634,Not Available,Not Available,19.990254,73.780154,P51600000801,Nashik (M Corp.),Nashik,Nashik,Nashik,MAHARASHTRA,422003,
NAKSHATRA C to G,54/8,KRISHNA COMPANY ROAD,SAMARVANI AREA,20.2583996,73.0139616,P49600000069,Not Available,Dadra & Nagar Haveli,Dadra & Nagar Haveli,DADRA & NAGAR HAVELI,DADRA & NAGAR HAVELI,396230,
RANTHAMBORE CITY PHASE I,"OUT OF PLOT NO 1 ,SN 9/2 10/1A",Not Available,Not Available,20.853092,77.731577,P50300002827,Amravati (M Corp.),Amravati,Amravati,Amravati,MAHARASHTRA,444701,
JAJOO NAIKS AMAR VRINDAVAN APARTMENT,Plot No 29 Sector P45A NH Vaishakh ,UNTWADI TO AMABDPOLICE STATION RAOD ,TRIMURTI CHOWCK ,19.9974533,73.7898023,P51600008287,Nashik (M Corp.),Nashik,Nashik,Nashik,MAHARASHTRA,422005,
Om Varco Regency Phase-1,45D/Plot No 11,Not Available,Not Available,21.1775074,79.0899245,P51000003720,Yavatmal (M Cl),Yavatmal,Yavatmal,Amravati,MAHARASHTRA,445001,
Pritam Apartment,1A,Not Available,Not Available,21.1775074,79.0899245,P50500004788,Nagpur (M Corp.),Nagpur (Urban),Nagpur,Nagpur,MAHARASHTRA,440014,
EKTA GREENVILLE PHASE 1 WING I  AND J,SURVEY NO 231 AT PATHARDI NASHIK,Not Available,Not Available,19.943503,73.754561,P51600001224,Nashik,Nashik,Nashik,Nashik,MAHARASHTRA,422010,
Construction of 96Ts EWS 36Ts MIG 8 Shops and 4 Office Chambers at site No 125 Datala New Chandrapur,125,datala,datala,19.96868611,79.25652222,P50900001085,Datala,Chandrapur,Chandrapur,Nagpur,MAHARASHTRA,442401,
Varad Vinayak Apartment,"22,23,24,25,26/581/2A,2B",Not Available,Not Available,19.2576763,76.7737167,P51300002328,Parbhani (M Cl),Parbhani,Parbhani,Aurangabad,MAHARASHTRA,431401,
MANHAR RESIDENCY,9 - 10,b p road,Dahisar west,19.254923,72.854594,P51800002057,Borivali,Borivali,Mumbai Suburban,Konkan,MAHARASHTRA,400068,
Vastu Shilp,"577, 578",Not Available,Not Available,19.850418,75.257878,P51500002776,Tisgaon,Aurangabad,Aurangabad,Aurangabad,MAHARASHTRA,431102,
KETAKI HEIGHTS,2050,Not Available,Not Available,19.621745,74.658096,P52200001135,Shrirampur (M Cl),Shrirampur,Ahmednagar,Nashik,MAHARASHTRA,413709,
BELA GAT NO 200,GAT NO 200,Not Available,Not Available,21.1683936,79.6561387,P50600003666,Bhandara (M Cl),Bhandara,Bhandara,Nagpur,MAHARASHTRA,441904,
SHAKTI UNICUS,7B/4,Not Available,Not Available,19.04906,72.921728,P51800004839,Greater Mumbai (M Corp.) (Part) (802794),Mumbai,Mumbai Suburban,Konkan,MAHARASHTRA,400088,
Amrit Sarita,"P.No 92, CTS No 381, Mouza Ambazari,",Not Available,Not Available,19.1538231,72.8751786,P50500001628,Nagpur (M Corp.),Nagpur (Urban),Nagpur,Nagpur,MAHARASHTRA,440010,
Sheetal Residency Building No 1,1419/1/2A and 1419/2/2A Plot No 1,Not Available,Not Available,19.1538231,72.8751786,P51600002772,,PALSE,Nashik,Nashik,Nashik,MAHARASHTRA,422101
Ayeshakiran Township,14759,Not Available,Not Available,19.853823,75.852189,P51400004767,Jalna (M Cl),Jalna,Jalna,Aurangabad,MAHARASHTRA,431203,
Orchard Meadow,"S. no 786, Plot no 12",GOVIND NAGAR ROAD,GOVIND NAGAR,19.989529,73.769144,P51600008737,Nashik,Nashik,Nashik,Nashik,MAHARASHTRA,422008,
Arihant Platino,"CTS NO. 220,2201,2202,221,222,2221 ",Not Available,Not Available,16.989328,73.316538,P52800000027,Nachane (CT),Ratnagiri,Ratnagiri,Konkan,MAHARASHTRA,415612,
Rachana 24 Carat,Plot no 87/CTS no 1047/Final plot no 87,Canal Road,RAMDASPETH,16.9899612,73.3287593,P50500002136,Nagpur (M Corp.),Nagpur (Urban),Nagpur,Nagpur,MAHARASHTRA,440010,
LOTUS PARK APARTMENT,"PLOT NO. 05, S.NO. 417/3A/3B/3C/3D",Not Available,Not Available,20.050346,73.77782,P51600004238,Nashik (M Corp.),Nashik,Nashik,Nashik,MAHARASHTRA,422003,
MADHUBAN APARTMENT,PLOT NO 1 S NO 55/2 55/3 CHAURANA BUDRUK AHMEDNAGAR,Not Available,Not Available,18.6742528,73.7301331,P52200003164,Ahmadnagar (M Corp.),Nagar,Ahmednagar,Nashik,MAHARASHTRA,414001,
Sai Kunj,13 1A 2,Not Available,Not Available,18.6742528,73.7301331,P52100000015,Pimpri Chinchawad (M Corp.),Haveli,Pune,Pune,MAHARASHTRA,412101,
Chaitanya Heights,141,Not Available,Not Available,19.910476,75.341676,P51500013505,Aurangabad (M Corp.),Aurangabad,Aurangabad,Aurangabad,MAHARASHTRA,431001,
PADMAVATI ENCLACE PHASE III,2/2/1,MANDONI ROAD,KHANVEL,20.1248408811449,73.068800794226,P49600000078,Not Available,Dadra & Nagar Haveli,Dadra & Nagar Haveli,DADRA & NAGAR HAVELI,DADRA & NAGAR HAVELI,396230,
VIDARBHAPREMIER NAGRI YAVATMAL,12/2A,WADGAON ROAD,WADGAON ,20.372945,78.103691,P51000011689,Wadgaon (CT),Yavatmal,Yavatmal,Amravati,MAHARASHTRA,445002,
"Daffodil Highs, Unity Studio Apartments and Eternity Villa","Khasra No 162, 163, 123/2 and 120/2",Not Available,Not Available,21.015546,79.008011,P50500001342,Kothewada,Hingna,Nagpur,Nagpur,MAHARASHTRA,441122,
Durvankur Apartment,68/2/13,Not Available,Not Available,18.6103179,73.7889689,P52100000784,Pimpri Chinchawad (M Corp.),Haveli,Pune,Pune,MAHARASHTRA,411017,
SARA SWAPNANGAN - ROW HOUSES,"GUT NO. 93-P, GUT NO. 95-P",Not Available,Not Available,19.889152,75.474281,P51500001944,Gangapur Jahagir,Aurangabad,Aurangabad,Aurangabad,MAHARASHTRA,431007,
Neel Vihar Wing c,3,Not Available,Not Available,21.087471,79.134924,P50500003714,Narsala,Nagpur (Rural),Nagpur,Nagpur,MAHARASHTRA,440034,
SMARTCITY,"Plot no 2 , Gut no 70",MAHARASHTRA,VASMAR TOAD,19.250622,76.81823,P51300012107,Karegaon,Parbhani,Parbhani,Aurangabad,MAHARASHTRA,431402,
SHABNAM COMPLEX,"3,4",Not Available,Not Available,20.528666,76.209155,P50000006049,Sundar khed (CT),Buldana,Buldana,Amravati,MAHARASHTRA,443001,
GP TOWER,"174/2,119,175/1,175/2,175/3",Not Available,Not Available,21.172336,79.652615,P50600012727,Bhandara (M Cl),Bhandara,Bhandara,Nagpur,MAHARASHTRA,441904,
Parvatinagar,"Gut No.112 Part, Shendra Jahangir, Tq and Dist Aurangabad",Not Available,Not Available,21.0817527,79.1192644,P51500012918,Shendra Kamangar,Aurangabad,Aurangabad,Aurangabad,MAHARASHTRA,431003,
VITTHALARPAN RESIDENCY-B,"PLOT NO 5-A,5-B,6,7",Not Available,Not Available,21.0817527,79.1192644,P50300004073,Amravati (M Corp.),Amravati,Amravati,Amravati,MAHARASHTRA,444607,
Pyramid City 6,P.H No - 38,Not Available,Not Available,21.083229,79.106831,P50500004036,Pipla,Nagpur (Rural),Nagpur,Nagpur,MAHARASHTRA,440037,
OMKAR MEADOWS,PLOT NO 81 RADHESHWARI NAGAR SOCIETY WAGHOLI PUNE 412207,Not Available,Not Available,18.579856,73.994908,P52100000144,WAGHOLI,Haveli,Pune,Pune,MAHARASHTRA,412207,
"SARA SWAPNANGAN - A4, A5, A6 BUILDINGS","GUT NO. 93-P, GUT NO. 95-P",SHENDRA,MIDC,19.889375,75.474093,P51500001363,Gangapur Jahagir,Aurangabad,Aurangabad,Aurangabad,MAHARASHTRA,431007,
Maniganesh Tower,"Plot Number 148-4, Sheet Number 49C",Not Available,Not Available,20.39313,78.136214,P51000008147,Yavatmal (M Cl),Yavatmal,Yavatmal,Amravati,MAHARASHTRA,445001,
ATHARVA NAGARI IV,PNO R3 R6,Not Available,Not Available,21.080102,79.119774,P50500002049,Pipla,Nagpur (Rural),Nagpur,Nagpur,MAHARASHTRA,440034,
VITTHALRUKMINI APPARTMENT NO 9,SURVEY NO 18/1 LAYOUT PLOT NO 10,Kaulkhed Road,Behind ST Work Shop,20.679312,77.038077,P50100004831,Akola (M Corp.),Akola,Akola,Amravati,MAHARASHTRA,444005,
PAWAN SUT APARTMENT,"Plot No. 10, CTS No. 70/1",Not Available,Not Available,20.7247951,77.0391754,P51600013796,Nashik,Nashik,Nashik,Nashik,MAHARASHTRA,422008,
Sugam  Cooperative  Housing Society Limited,CTS no 139 S No 36 Plot No 3,Erandwane,Erandwane,18.503223,73.82476,P52100012123,Pune (M Corp.),Pune City,Pune,Pune,MAHARASHTRA,411038,
ADARSH RESIDENCY,"MOUJE JEVAD, SURVEY NO 48",Not Available,Not Available,18.5165691,73.8036752,P50300004588,Amravati (M Corp.),Amravati,Amravati,Amravati,MAHARASHTRA,444606,
SWAPNIL PARIJAT,PLOT NO 107 CTS NO 27/455 SHEET NO 27,Not Available,Not Available,21.137479,79.057448,P50500012134,Nagpur (M Corp.),Nagpur (Urban),Nagpur,Nagpur,MAHARASHTRA,440010,
LAMBODAR RESIDENCY,GUT 83 PART,-,DEOLAI,19.839922,75.35436,P51500004619,Devlai,Aurangabad,Aurangabad,Aurangabad,MAHARASHTRA,431002,
Vrindavan Phase 1,"Plot No 1/2/4/5/6/7 of Layout on Kh No 248,257/2,258",Vrindavan Marg,Vrindavan,21.0150991337894,79.0158851603028,P50500002672,Jamtha,Nagpur (Rural),Nagpur,Nagpur,MAHARASHTRA,441122,
DREAMZ PARK WING A,2,Not Available,Not Available,20.918665,77.741865,P50300007239,Amravati (M Corp.),Amravati,Amravati,Amravati,MAHARASHTRA,444605,
"PLOT NO.4, PATHAK-GREENS",PLOT NO 4/KH NO 44-1,Not Available,Not Available,21.0333937,78.954279,P50500002972,Gotal Panjari,Nagpur (Rural),Nagpur,Nagpur,MAHARASHTRA,441108,
VYANKATESH PRIDE,GUT NO 138 PART,Not Available,Not Available,18.4910963,73.8229306,P51500002419,Aurangabad (M Corp.),Aurangabad,Aurangabad,Aurangabad,MAHARASHTRA,431003,
Gopalkrupa,1170/8,Off J.M. Road,Bhamburda,18.525633,73.849143,P52100003479,Karve Nagar,Haveli,Pune,Pune,MAHARASHTRA,411005,
Anmol Nayantara City One Phase 3,"785/ 1 2 3/1 ,785/1 2 3/6,785/1 2 3/3/3,785/1 2 3/3/1,778/1C,778/2B P,785/1 2 3/9,784/2,785/1 2 3/10",Not Available,Not Available,19.988938,73.772225,P51600000354,Nashik,Nashik,Nashik,Nashik,MAHARASHTRA,422008,
DREAMZ PARK WING B,1,Not Available,Not Available,20.918524,77.741846,P50300005712,Amravati (M Corp.),Amravati,Amravati,Amravati,MAHARASHTRA,444605,
VEDA PRIVE II,"Plot No 126 to 131 /363-1,2,3,4, 364-1,2, 365, 366-1,2,3 and 367",Not Available,Not Available,19.075133,74.735793,P52200000360,Ahmadnagar (M Corp.),Nagar,Ahmednagar,Nashik,MAHARASHTRA,414001,
ANAND TOWER,6,Radhika Hotel,Collector Banglow,19.8799355,75.3324723,P50000010006,buldana (MCL),Buldana,Buldana,Amravati,MAHARASHTRA,443001,
BHUVI VRUNDAVAN - 1,"Gut No 150, Khumbhephal, Aurangabad",Village Road,Kumbhefal,19.8799355,75.3324723,P51500003772,Kubhephal,Aurangabad,Aurangabad,Aurangabad,MAHARASHTRA,431001,
Anshul Aarush A building and B building,21/15,Not Available,Not Available,19.619403,74.632246,P52200000814,Dattanagar,Shrirampur,Ahmednagar,Nashik,MAHARASHTRA,413709,
VIMACO GULMOHAR CONDOMINIUM,"SHEETA NO. 18-C, NAZUL PLOT NO. 1",Not Available,Not Available,19.867598,75.4985521,P50300006416,Amravati (M Corp.),Amravati,Amravati,Amravati,MAHARASHTRA,444606,
VRUNDAVAN,GUT NO 330,MAIN ROAD,NEAR ZP SCHOOL,19.867598,75.4985521,P51500003771,Kubhephal,Aurangabad,Aurangabad,Aurangabad,MAHARASHTRA,431201,
KRISHNA HEIGHTS,SURVEY NO. 94/1,AMLI,AMLI,20.284751,72.996515,P49600000079,Not Available,Dadra & Nagar Haveli,Dadra & Nagar Haveli,DADRA & NAGAR HAVELI,DADRA & NAGAR HAVELI,396193,
GURU SAI COMPLEX,"PLOT NO 6,7 CTS NO 15847/173,174",Not Available,Not Available,21.0333937,78.954279,P51500004148,Aurangabad (M Corp.),Aurangabad,Aurangabad,Aurangabad,MAHARASHTRA,431001,
KASTURI NAGAR,43/2,Not Available,Not Available,21.060675,79.08315,P50500002773,Gotal Panjari,Nagpur (Rural),Nagpur,Nagpur,MAHARASHTRA,441108,
SAI HARDIK HEIGHTS,"PLOT NO 1 GUT NO 13/2/2 AND 13/2/3,KANCHANWADI",Not Available,Not Available,18.5817469,73.9817056,P51500002507,Aurangabad (M Corp.),Aurangabad,Aurangabad,Aurangabad,MAHARASHTRA,431005,
Manhattan,Gat no 569,Not Available,Not Available,18.587686,73.989612,P52100000291,WAGHOLI,Haveli,Pune,Pune,MAHARASHTRA,412207,
Dhumravarna Heights,"6/2, 289, 28/10, ",Not Available,Not Available,21.130098,79.078992,P50500006544,Nagpur (M Corp.),Nagpur (Urban),Nagpur,Nagpur,MAHARASHTRA,440012,
OM VRUNDAVAN,GUT NO 105 TISGAON,Not Available,Not Available,19.863306,75.263672,P51500003613,Tisgaon,Aurangabad,Aurangabad,Aurangabad,MAHARASHTRA,431102,
HARI SAGAR,"S NO 99A/1, PLOT NO 3,4,5,7,8,9,10,11,12,13",Lam road,Deolali,19.914265,73.831056,P51600000630,Nashik,Nashik,Nashik,Nashik,MAHARASHTRA,422401,
K-SQUARE APARTMENTS,KH NO 65/3 CTS NO 512 512/2 ,Not Available,Not Available,21.104287,79.077098,P50500003259,Nagpur (M Corp.),Nagpur (Urban),Nagpur,Nagpur,MAHARASHTRA,440015,
Vishwa Prestige,"Plot no. 5A  6 ,R.S. NO 924, Hissa No. 2, A Ward, Devkar Panand, Kolhapur",Not Available,Not Available,19.0893148,72.9078057,P53000001706,Kolhapur (M Corp.),Karvir,Kolhapur,Pune,MAHARASHTRA,416012,
Neelyog Veydaanta,"3990p  3996p,3997p,3998p,3999p,4000,4001,4002p,4002A",Andheri-Ghatkopar Link Road,Nityananad Nagar,19.090941,72.913645,P51800001645,Kurla,Kurla,Mumbai Suburban,Konkan,MAHARASHTRA,400086,
HARI SANSKRUTI PHASE II,S No 259/1 part and 259/2 part,Kharjurmala,Nashik,19.9391753069509,73.8469298111839,P51600000551,Deolaligaon,Nashik,Nashik,Nashik,MAHARASHTRA,422101,
ARIHANT BUSINESS CENTER,GUT NO 109 AND 112,BEED BY PASS ROAD,"GUT NO 109, OPP. MADHUBAN HOTEL, DEOLAI",19.850105,75.366051,P51500005697,Satara (CT),Aurangabad,Aurangabad,Aurangabad,MAHARASHTRA,431002,
HARI BHAKTI,Survey No 37/1B and 37/1C,Datta Mandir road,Datta Mandir road,19.9479277977197,73.834180393779,P51600000585,Deolali (CB),Nashik,Nashik,Nashik,MAHARASHTRA,422101,
SOLITAIRE,36/254/,Not Available,Not Available,21.150653,79.1294516,P50500012837,Nagpur (M Corp.),Nagpur (Urban),Nagpur,Nagpur,MAHARASHTRA,440008,
DREAM CITY PROJECT- PHASE I,"127/1/2, 24,25,26,27",Not Available,Not Available,21.18182,79.62323,P50600010003,Khokurla,Bhandara,Bhandara,Nagpur,MAHARASHTRA,441904,
YASH TOWER,13156/1,Not Available,Not Available,19.881345,75.325848,P51500001341,Aurangabad (M Corp.),Aurangabad,Aurangabad,Aurangabad,MAHARASHTRA,431001,
Anmol Nayantara City One phase 4,"785/ 1 2 3/1 ,785/1 2 3/6,785/1 2 3/3/3,785/1 2 3/3/1,778/1C,778/2B P,785/1 2 3/9,784/2,785/1 2 3/10",Not Available,Not Available,19.990894,73.772431,P51600000299,Nashik,Nashik,Nashik,Nashik,MAHARASHTRA,422008,
Pyramid City 3,155/3,Not Available,Not Available,21.083257,79.107382,P50500004416,Pipla,Nagpur (Rural),Nagpur,Nagpur,MAHARASHTRA,440010,
Tirupati Plaza,9126,Not Available,Not Available,19.841343,75.887783,P51400002779,Jalna (M Cl),Jalna,Jalna,Aurangabad,MAHARASHTRA,431213,
Tulsi Developers,Part of Survey No 40B2 CTS No 10009 and 10010,Not Available,Not Available,19.173562,77.318351,P51100005078,Nanded Waghala (M Corp.),Nanded,Nanded,Aurangabad,MAHARASHTRA,431605,
Shri Govinda Imperial,"182/1 ,182/1-A ,193/1-A",Not Available,Not Available,19.2066982,77.2979782,P50300002973,Amravati (M Corp.),Amravati,Amravati,Amravati,MAHARASHTRA,444604,
Wallfort Garden,Final Plot No. 78 Pt 10 and 11,Not Available,Not Available,19.2066982,77.2979782,P51600013498,Malegaon (M Corp.),Malegaon,Nashik,Nashik,MAHARASHTRA,423203,
KASTURI FLORIDUS,SURVEY NO 184/1/6,SILVASSA BHILAD MAIN ROAD,SILVASSA,20.271171,72.995108,P49600000081,Not Available,Dadra & Nagar Haveli,Dadra & Nagar Haveli,DADRA & NAGAR HAVELI,DADRA & NAGAR HAVELI,396230,
Anmol Nayantara City One phase 2,"785/ 1 2 3/1 ,785/1 2 3/6,785/1 2 3/3/3,785/1 2 3/3/1,778/1C,778/2B P,785/1 2 3/9,784/2,785/1 2 3/10",Not Available,Not Available,19.988926,73.772235,P51600000565,Nashik,Nashik,Nashik,Nashik,MAHARASHTRA,422008,
SANGATH,"S.NO.54/2,54/3,54/4 AND 30/1/1",KRISHNA COMPANY ROAD,SAMARVARNI,20.258239,73.0141,P49600000083,Not Available,Dadra & Nagar Haveli,Dadra & Nagar Haveli,DADRA & NAGAR HAVELI,DADRA & NAGAR HAVELI,396230,
Daga Sapphire Infinity,"Sheet No. 37, Plot No. 8/1",CAMP ROAD,CAMP,20.935839,77.767662,P50300007253,Amravati (M Corp.),Amravati,Amravati,Amravati,MAHARASHTRA,444601,
UTSAV HOMES 3 - PHASE 1,336/4,DSK RANWARA ROAD,PATIL NAGAR,18.521274779071,73.7719671024468,P52100001709,Bavadhan BK,Mulshi,Pune,Pune,MAHARASHTRA,411021,
Anmol Nayantara City One Phase 1," 785/ 1 2 3/1 ,785/1 2 3/6,785/1 2 3/3/3,785/1 2 3/3/1,778/1C,778/2B P,785/1 2 3/9,784/2,785/1 2 3/1",Not Available,Not Available,19.988955,73.772529,P51600000539,Nashik,Nashik,Nashik,Nashik,MAHARASHTRA,422008,
OM SAHIL SOLITAIRE,441 442 446 450 451 452 453,Not Available,Not Available,18.990475,72.852523,P51900010839,FSouth-400015,Ward FSouth,Mumbai City,Konkan,MAHARASHTRA,400015,
Dreamzland Business Park Phase I,87/88/119/113P/134/135/138/139/140/142 /142 P,Not Available,Not Available,20.986807,77.801302,P50300004385,Borgaon,Amravati,Amravati,Amravati,MAHARASHTRA,444901,
Serenity Heights,662/5,SAKI VIHAR ROAD,SAKI NAKA,19.112426,72.886383,P51800002492,Kurla,Kurla,Mumbai Suburban,Konkan,MAHARASHTRA,400072,
LAIJAI NAGARI 14/A/1,14/A/1,Not Available,Not Available,19.178814,77.264421,P51100002964,Wadi Bk.,Nanded,Nanded,Aurangabad,MAHARASHTRA,431605,
atharva heights,"4329,4330,4331,4332",Not Available,Not Available,19.984855,79.246692,P50900003508,Chandrapur (M Cl),Chandrapur,Chandrapur,Nagpur,MAHARASHTRA,442402,
Dreamzland Business Park Phase II,"87,88,119 p,113,134,135,138,139,140,142 144 p",Not Available,Not Available,20.986079,77.801172,P50300004985,Borgaon,Amravati,Amravati,Amravati,MAHARASHTRA,444901,
AARYA VASTU,PLOT NO 9 AND 10 GUT NO 178,Not Available,Not Available,19.8640215,75.263948,P51500001963,Tisgaon,Aurangabad,Aurangabad,Aurangabad,MAHARASHTRA,431001,
THE VIDARBHA PREMIER AMBANAGRI KIRAN NAGAR AMRAVTI,KHASRA NO 21,NEAR OLD BYE PASS,KIRANNAGAR,20.89408,77.764382,P50300013412,Amravati (M Corp.),Amravati,Amravati,Amravati,MAHARASHTRA,444606,
DEOGIRI VRINDAVAN,GUT NO 136,Holkar nagar road,HARSUL,19.838632,75.327189,P51500004708,Aurangabad (M Corp.),Aurangabad,Aurangabad,Aurangabad,MAHARASHTRA,431001,
"EKTA GREENVILLE PHASE 2 WING O , P , Q AND R",S NO 231 AT PATHARDI NASHIK,Not Available,Not Available,19.94358,73.754097,P51600000685,Nashik,Nashik,Nashik,Nashik,MAHARASHTRA,422010,
Shree Durga Apartment,2126 A,Not Available,Not Available,21.146986,79.161046,P50500001801,Nagpur (M Corp.),Nagpur (Urban),Nagpur,Nagpur,MAHARASHTRA,440035,
GURUKRUPA RESIDENCY,26,Not Available,Not Available,19.843839,75.298931,P51500007236,Aurangabad (M Corp.),Aurangabad,Aurangabad,Aurangabad,MAHARASHTRA,431005,
SHAHS GARDEN RESIDENCY PHASE II,S NO 54/2  BHAGUR,Not Available,Not Available,19.882443,73.847154,P51600001356,Bhagur Rural,Nashik,Nashik,Nashik,MAHARASHTRA,422502,
YOGI MILAN PHASE IV,261/1,SUB JAIL ROAD,SILVASSA,20.279698,72.990759,P49600000084,Not Available,Dadra & Nagar Haveli,Dadra & Nagar Haveli,DADRA & NAGAR HAVELI,DADRA & NAGAR HAVELI,396230,
VYANKATESH DEV RESIDENCY,"9/2, 10/1, 10/2, 10/3",Not Available,Not Available,20.927037,77.766328,P50300011184,Amravati (M Corp.),Amravati,Amravati,Amravati,MAHARASHTRA,444605,
SHRIKRUSHNA BUILDERS AND DEVELOPERS,"KHASRA NO 140,P.H.NO 40 MAUZA CHIKNA TAHSIL NAGPUR GRAMIN,NAGPUR",Not Available,Not Available,21.1117002,79.0729793,P50500004647,Nagpur (M Corp.),Nagpur (Urban),Nagpur,Nagpur,MAHARASHTRA,440015,
SHRI KRISHNA VIHAR,"Plot No 7 , S No 49/2 , Mauje Shegaon",Not Available,Not Available,18.9824149,73.3284445,P50300003987,Amravati (M Corp.),Amravati,Amravati,Amravati,MAHARASHTRA,444604,
RENUKA DARSHAN,25/5/2 3 4,DEOLALI ROAD,VIHITGAON,19.932413,73.820942,P51600004063,VIHITGAON,Nashik,Nashik,Nashik,MAHARASHTRA,422101,
Rachana Sahira Wing A,4B/514/144/2/2/4B,Not Available,Not Available,21.060035,79.0566,P50500001307,Nagpur (M Corp.),Nagpur (Urban),Nagpur,Nagpur,MAHARASHTRA,440005,
SYMPHONY,GUT NO 136 SATARA,Deolai Road,Satara Parisar,19.845898278427,75.3543101402236,P51500002685,Aurangabad (M Corp.),Aurangabad,Aurangabad,Aurangabad,MAHARASHTRA,431005,
Anmol Nayantara City One Phase 5,"785/ 1 2 3/1 ,785/1 2 3/6,785/1 2 3/3/3,785/1 2 3/3/1,778/1C,778/2B P,785/1 2 3/9,784/2,785/1 2 3/10",Not Available,Not Available,19.98863,73.771364,P51600001252,Nashik,Nashik,Nashik,Nashik,MAHARASHTRA,422008,
Dreamzland Business Park PHASE III,"87,88,119 p,113,134,135,138,139,140 142 ,144 p",Not Available,Not Available,20.986411,77.802557,P50300004849,Borgaon,Amravati,Amravati,Amravati,MAHARASHTRA,444901,
Balaji Sanyog,P.H. No. 38A,Not Available,Not Available,21.088209,79.0820627,P50500004586,Besa,Nagpur (Rural),Nagpur,Nagpur,MAHARASHTRA,440037,
VENUS HEIGHT,26 AND 27 S/N 32/3,Not Available,Not Available,21.088209,79.0820627,P50300008918,Amravati (M Corp.),Amravati,Amravati,Amravati,MAHARASHTRA,444601,
Runwal Elina,"684, 685A, 687 1 to 6",Andheri - Kurla Road,Sakinaka,19.099727,72.885186,P51800000072,Kurla,Kurla,Mumbai Suburban,Konkan,MAHARASHTRA,400072,
SHANKARAA SRUSHTI,GUT NO. 167/1 HARSOOL,Jalgaon Road,Harsul,19.919396,75.356343,P51500004524,Aurangabad (M Corp.),Aurangabad,Aurangabad,Aurangabad,MAHARASHTRA,431001,
PREMALDEEP,PLOT NO 116,PLOT NO 116 KILVANI NAKA ROAD,KILVANI NAKA,20.16309,73.00222,P49600000089,Not Available,Dadra & Nagar Haveli,Dadra & Nagar Haveli,DADRA & NAGAR HAVELI,DADRA & NAGAR HAVELI,396230,
CHANDRAVEL3,"PLOT NO.1 TO 04, 06 TO 20, SURVEY NO. 97/2-2",Nakane Road,chandravel 2,20.92031,74.751006,P49800001074,Walwadi (CT),Dhule,Dhule,Nashik,MAHARASHTRA,424001,
Dreamaland Business Park Phase No IV,"87,88,119,119 p,113,134,135,138,139,140,142 144 p",Not Available,Not Available,20.986218,77.802519,P50300004109,Borgaon,Amravati,Amravati,Amravati,MAHARASHTRA,444901,
MAHALAXMI NAGAR 1,91 PART,MAHARASHTRA,JAMTHA,21.019862,79.040122,P50500001839,Jamtha,Nagpur (Rural),Nagpur,Nagpur,MAHARASHTRA,441122,
NEELAYA,"S NO 393-1,393-2",HIGHWAY MUMBAI-PUNE,TALEGAON,18.721281,73.667479,P52100000013,Talegaon Dabhade (M Cl),Mawal,Pune,Pune,MAHARASHTRA,410506,
SHIVTHIRTH NAGAR 2,8-1,Not Available,Not Available,18.755332,73.6683894,P50500001948,Gotal Panjari,Nagpur (Rural),Nagpur,Nagpur,MAHARASHTRA,440034,
Classic Samarth Villa,"Plot No.11, Gut No. 89 PT, Shendra Jahagir",Not Available,Not Available,19.867353,75.47009,P51500007813,Aurangabad (M Corp.),Aurangabad,Aurangabad,Aurangabad,MAHARASHTRA,431005,
Dreamz Landmark,"122,123,124/1,124/2,127/4p,127/5p",Not Available,Not Available,20.926368,77.753322,P50300005178,Amravati (M Corp.),Amravati,Amravati,Amravati,MAHARASHTRA,444601,
Malpanis Batra Residency,"Gut Number 103, Tisgaon, Waluj Mahanagar-I, Aurangabad",Not Available,Not Available,19.854239,75.265851,P51500002970,Tisgaon,Aurangabad,Aurangabad,Aurangabad,MAHARASHTRA,431001,
SHYAM VILLA,"Plot no. 01, Survey No. 23/1",Not Available,Not Available,20.661699,77.02515,P50100007058,Khadki Bk (CT),Akola,Akola,Amravati,MAHARASHTRA,444001,
Shrihari Nakshatra,Gut 19 Nakshtrawadi,Nakshatrawadi to Paithan Road,Nakshatrawadi,19.8065158459048,75.2900935087265,P51500002659,Aurangabad (M Corp.),Aurangabad,Aurangabad,Aurangabad,MAHARASHTRA,431002,
SAMRUDDHI BUILDERS,22,BULDANA,BULDANA,20.5601830966137,76.1923539730469,P50000017281,buldana (MCL),Buldana,Buldana,Amravati,MAHARASHTRA,443001,
AKSHAY GALAXY,S.NO. 9/1B,PUNE-SASWAD ROAD,YEWALEWADI,18.434208,73.898376,P52100001730,Market Yard,Haveli,Pune,Pune,MAHARASHTRA,411037,
Tejal Park,1 A and 1 B,Not Available,Not Available,19.919251,75.35602,P51500002693,Aurangabad (M Corp.),Aurangabad,Aurangabad,Aurangabad,MAHARASHTRA,431003,
BLISS,336/1/4/2,SUB JAIL ROAD,NR PRAMUKH VIHAR,20.27534,72.999063,P49600000090,Not Available,Dadra & Nagar Haveli,Dadra & Nagar Haveli,DADRA & NAGAR HAVELI,DADRA & NAGAR HAVELI,396230,
PRATHMESH SANKUL,SURVEY 18/1B/ PLOT 6,Not Available,Not Available,20.387204,78.112147,P51000011179,Yavatmal (M Cl),Yavatmal,Yavatmal,Amravati,MAHARASHTRA,445001,
Nabhraj Nandanvan Phase II,Gat no. 734,Not Available,Not Available,19.869932,75.400163,P51500003126,Aurangabad (M Corp.),Aurangabad,Aurangabad,Aurangabad,MAHARASHTRA,431210,
PLOT NO 802,"PLOT NO 802 Survey no 459,461/1, 460/2,460/3, 461/1, 461/1A, 461/2, 451/1 part, 458/1, 458/2, 464/1,",NAGPUR ROAD,NANDGAON PETH ,19.8761653,75.3433139,P50300006179,Nandgaon peth,Amravati,Amravati,Amravati,MAHARASHTRA,444901,
YOGI MILAN PLUS,271/3 AND 271/1,SUB JAIL ROAD,SILVASSA,20.278852,72.992368,P49600000091,Not Available,Dadra & Nagar Haveli,Dadra & Nagar Haveli,DADRA & NAGAR HAVELI,DADRA & NAGAR HAVELI,396230,
SAI KAMAL,TISGAON GUT 180 PLOT NO. 517,Waluj Mahanagar,Waluj Mahanagar 1,19.8640215,75.263948,P51500007461,Tisgaon,Aurangabad,Aurangabad,Aurangabad,MAHARASHTRA,413136,
Shivam Pride,"Gut no 296,298",Not Available,Not Available,19.853708,75.936225,P51400014239,Deomurti,Jalna,Jalna,Aurangabad,MAHARASHTRA,431203,
PLOT NO 804,"plot no 804 Survey no.459, 461/1, 460/1C, 460/2, 460/3, 461/1, 461/1A, 461/2, 451/1 part, 458/1, 458",Not Available,Not Available,19.8642882,75.9433908,P50300004007,Nandgaon peth,Amravati,Amravati,Amravati,MAHARASHTRA,444901,
Tulip,"KH NO 174/1, PLOT NO. 39",Not Available,Not Available,18.5052428,73.7661129,P50500001330,Nagpur (M Corp.),Nagpur (Urban),Nagpur,Nagpur,MAHARASHTRA,440001,
Yashwin Anand,"Survey number 24/3/1, 24/3/2, 24/3/3, 24/4, 24/7A, 24/7C/1, 24/5A, 24/5B, 24/6, 24/7C/2 part",Sus Mhalunge Road,Sus,18.5615343448878,73.7570967962952,P52100000012,Sus,Mulshi,Pune,Pune,MAHARASHTRA,411021,
ACE AURUM,60/2/3 PART,"Near Mukai Chowk, BRT  Road, Ravet ","Opp. Bondave Vasti BRT Stop, Ravet Pune - 412101",18.655647,73.734688,P52100000090,Pimpri Chinchawad (M Corp.),Haveli,Pune,Pune,MAHARASHTRA,412101,
Samraat Nucleus - Project 01,"Plot No 08 S No 510/1P, 510/3, 510/4, 510/5, 511/10/1 and 512/3/8 F Plot No 34 And 42 CTS No 7209",Bhabha Nagar Road,Bhabha Nagar,19.988088,73.790606,P51600001208,Nashik,Nashik,Nashik,Nashik,MAHARASHTRA,422011,
Aryavan Hills,3-2 sheet no 37 Peth Amravati,Not Available,Not Available,20.872407,77.728896,P50300007847,Amravati (M Corp.),Amravati,Amravati,Amravati,MAHARASHTRA,444602,
ATHARVA VILLAMENTS,KH NO 154 1 P NO 5,Not Available,Not Available,21.075521,79.119847,P50500002215,Pipla,Nagpur (Rural),Nagpur,Nagpur,MAHARASHTRA,440034,
SUYOJIT GREENS,44/11A PLOT NO. 6,NASHIK PUNE ROAD,"Lavate Nagar, Nashik Road, Nashik",19.9445227,73.8294651,P51600002051,Deolali (CB),Nashik,Nashik,Nashik,MAHARASHTRA,422401,
EKDANT SANSKRITI,58/3,ULTAN FALIA ROAD,AMLI,20.284356,72.99041,P49600000094,Not Available,Dadra & Nagar Haveli,Dadra & Nagar Haveli,DADRA & NAGAR HAVELI,DADRA & NAGAR HAVELI,396230,
SANKALP HEIGHT,"PLOT NO.13,S/NO 41",Not Available,Not Available,20.973075,77.75406,P50300003775,Amravati (M Corp.),Amravati,Amravati,Amravati,MAHARASHTRA,444601,
ATHARVA CASTLE,KH NO 154 2 3 PLOT NO 5,Not Available,Not Available,21.077694,79.120272,P50500001987,Pipla,Nagpur (Rural),Nagpur,Nagpur,MAHARASHTRA,440034,
Choudhary Bhuvi Landmarks - II ,"Plot No 3, Gut No 140",Not Available,Not Available,21.0801997,79.1202772,P51500005055,Tisgaon,Aurangabad,Aurangabad,Aurangabad,MAHARASHTRA,431136,
Tejal Pride,Plot no 19 C  Survey no 176/1/2,Not Available,Not Available,19.914421,75.35405,P51500002379,Aurangabad (M Corp.),Aurangabad,Aurangabad,Aurangabad,MAHARASHTRA,431001,
AKSHAR DEEP,18/1/1/2,Not Available,Not Available,20.043318,73.778923,P51600008239,Nashik (M Corp.),Nashik,Nashik,Nashik,MAHARASHTRA,422004,
SHRINIWASA 63 COMPLEX,"Nazul sheet no.67-c,plot no.-63,49,50,59,60,62,47",Not Available,Not Available,20.927204,77.753183,P50300012588,Amravati (M Corp.),Amravati,Amravati,Amravati,MAHARASHTRA,444601,
LAXMI NARAYAN RESIDENCY,"PLOT NO 63/64, KHASRA NO 91/1, 91/2, 91/3 CITY SURVEY NO 583",Not Available,Not Available,21.1117002,79.0729793,P50500001582,Nagpur (M Corp.),Nagpur (Urban),Nagpur,Nagpur,MAHARASHTRA,440015,
LAKSHMI RESIDENCY,113/2 TO 113/7,Not Available,Not Available,19.0344647,73.0110096,P53100008264,Sangli Miraj Kupwad (M Corp.),Miraj,Sangli,Pune,MAHARASHTRA,416416,
Saptagiri,Plot No 33 to 36 and 40 to 43,Not Available,Not Available,19.0344647,73.0110096,P51100002999,Nanded Waghala (M Corp.),Nanded,Nanded,Aurangabad,MAHARASHTRA,431603,
SHREE TIRUMALA SWASTIK APARTMENT,"867/2/69 , 74",Not Available,Not Available,19.0344647,73.0110096,P51600005646,Indiranagar,Nashik,Nashik,Nashik,MAHARASHTRA,422009,
KESHAV KUNJ IV,"PLOT NO 5-9, SECTOR 44A, NERUL",Not Available,Not Available,19.062183,73.004475,P51700000624,Navi Mumbai (M Corp.),Thane,Thane,Konkan,MAHARASHTRA,400706,
WARDHEKAR COMPLEX,72,Not Available,Not Available,21.021601,77.823859,P50300006612,Amravati (M Corp.),Amravati,Amravati,Amravati,MAHARASHTRA,444601,
UTSAV HOMES 2,339/9/1 and 339/9/2,Not Available,Not Available,18.521472,73.774185,P52100001111,Pune (M Corp.),Pune City,Pune,Pune,MAHARASHTRA,411004,
jyoti savitri vihar,8 9 11,Not Available,Not Available,18.5335989,73.8304269,P51000010707,Moha,Yavatmal,Yavatmal,Amravati,MAHARASHTRA,445001,
SHREE TIRUMALA PARADISE APARTMENT,900/1/14 PLOT NO 8,CHETANA NAGAR,NASHIK,19.9613254552147,73.7699754109619,P51600001631,Nashik,Nashik,Nashik,Nashik,MAHARASHTRA,422009,
RAJ HEAVENS PHASE 1 C BUILDING,"495/1/1,495/2,493/4/2/1,493/4/1/1,496/5",NEW RING ROAD ,BEHIND LIONS ENGLISH SCHOOL,20.271845,73.017403,P49600000096,Not Available,Dadra & Nagar Haveli,Dadra & Nagar Haveli,DADRA & NAGAR HAVELI,DADRA & NAGAR HAVELI,396230,
ATHARVA FORTUNE,KH NO 154 1 P NO 1,Not Available,Not Available,21.07867,79.119937,P50500002140,Pipla,Nagpur (Rural),Nagpur,Nagpur,MAHARASHTRA,440034,
PLOT NO 805,PLOT NO 805 S.NO. 459 461/1 460/1C 460/2 460/3 461/1 461/1A 461/2 451/1 PART 458/1 458/2 464/1,Not Available,Not Available,21.1372529,79.058856,P50300004335,Nandgaon peth,Amravati,Amravati,Amravati,MAHARASHTRA,444901,
SHREE TIRUMALA HARINIWAS APARTMENT,S NO 78 PLOT NO 83,Not Available,Not Available,21.1372529,79.058856,P51600001282,Satpur,Nashik,Nashik,Nashik,MAHARASHTRA,422013,
Shreeji Tower Residential,06 to 08/70,Not Available,Not Available,21.1372529,79.058856,P51500003486,Aurangabad (M Corp.),Aurangabad,Aurangabad,Aurangabad,MAHARASHTRA,431001,
OLIVE SILLARI,"16/1, 16/2 ,12/1, 12/2",Not Available,Not Available,21.543432,79.334365,P50500012737,Nagpur (M Corp.),Nagpur (Urban),Nagpur,Nagpur,MAHARASHTRA,440010,
Shri Radha Krishna Residency,"1 and 6, Field Survey No. 64, Mouje - Peth Amravati",Not Available,Not Available,20.922654,77.741301,P50300009832,Amravati (M Corp.),Amravati,Amravati,Amravati,MAHARASHTRA,444605,
MADAN RATAN CITY,"CITY SURVEY NO. 39 KH NO 21/1, MOUZA CHIKHALI KHURD HOUSE NO 4714/ 1,  BHOLE NAGAR, NAGPUR 440024",Not Available,Not Available,21.1421125,79.1111018,P50500001473,Nagpur (M Corp.),Nagpur (Urban),Nagpur,Nagpur,MAHARASHTRA,440032,
SHREE TIRUMALA VASANT APARTMENT,S. NO. 878/3/51 ,Not Available,Not Available,18.5019606,73.9330242,P51600001697,Nashik,Nashik,Nashik,Nashik,MAHARASHTRA,422009,
Picasso Phase II,201P,Pune Solapur Road,"Sade Satra Nali, Hadapsar",18.5119891679348,73.9431577236436,P52100000104,Hadapsar,Haveli,Pune,Pune,MAHARASHTRA,411028,
SHEETAL PLAZA,"18-21, 25, 26, SURVEY NO. 32/2",Not Available,Not Available,20.372878,78.102627,P51000004005,Yavatmal (M Cl),Yavatmal,Yavatmal,Amravati,MAHARASHTRA,445001,
ATHARVA NAGARI III,131 A 1 ,Not Available,Not Available,21.082956,79.108366,P50500001976,Pipla,Nagpur (Rural),Nagpur,Nagpur,MAHARASHTRA,440034,
MORAJ MAA SHRISHTI,1106/37-02,chinchavli,Lowjee,18.809546,73.330541,P52000000480,Khopoli,Khalapur,Raigarh,Konkan,MAHARASHTRA,410203,
BRAMHAPURI RESIDENCY,15802,Jalna,Jalna,18.8305523,73.2846445,P51400012471,Jalna (M Cl),Jalna,Jalna,Aurangabad,MAHARASHTRA,431203,
SUPREME PLAZA ,174,Not Available,Not Available,18.8305523,73.2846445,P50500002753,Nagpur (M Corp.),Nagpur (Urban),Nagpur,Nagpur,MAHARASHTRA,440013,
MANORATH RESIDENCY PHASE-3,"27/1/3,27/1/4/1/1/1",SILVASSA-SAYLI ROAD,NR LIONS SCHOOL,20.2683809015219,73.0136239733279,P49600000105,Not Available,Dadra & Nagar Haveli,Dadra & Nagar Haveli,DADRA & NAGAR HAVELI,DADRA & NAGAR HAVELI,396230,
SHIVANAND HEIGHTS,27,Not Available,Not Available,18.5296029,73.8760154,P50300005800,Amravati (M Corp.),Amravati,Amravati,Amravati,MAHARASHTRA,444606,
Gagan Utopia,"S. No. 9 to 14, Hissa No. 1/16, Keshav Nagar, Mundhava.",Mundhwa,Mundhwa,18.5425104642191,73.9461133700794,P52100005074,Pune (M Corp.),Pune City,Pune,Pune,MAHARASHTRA,411001,
KRISHNA ANANDAM 2,P.NO 77 PANNASE LAYOUT NAGPUR S.NO 209/290152/77,Near London Street,Pannase Layout,21.104333,79.034198,P50500012118,Nagpur (M Corp.),Nagpur (Urban),Nagpur,Nagpur,MAHARASHTRA,440033,
BIRDS COUNTY,SURVEY NUMBER 129,Not Available,Not Available,18.605698,73.757759,P52100010148,Wakad,Mulshi,Pune,Pune,MAHARASHTRA,411057,
DISHA VINAYAK PHASE 1,"GUT NO 21, SATARA",Not Available,Not Available,19.845046,75.307612,P51500002345,Satara (CT),Aurangabad,Aurangabad,Aurangabad,MAHARASHTRA,431010,
ROONGTA TOWNSHIP PHASE IV APARTMENT,"882/2B/12,13 PLOT NO 12  13",NASHIK,NASHIK,19.973557,73.776985,P51600001287,Nashik,Nashik,Nashik,Nashik,MAHARASHTRA,422009,
RAGHAV SANKUL,1,Khamgaon,Khamgaon,20.713982,76.561075,P50000006634,Khamgaon (M Cl),Khamgaon,Buldana,Amravati,MAHARASHTRA,444303,
DISHA VINAYAK PHASE 2,"GUT NO 21, SATARA",Not Available,Not Available,19.845062,75.307654,P51500001666,Satara (CT),Aurangabad,Aurangabad,Aurangabad,MAHARASHTRA,431010,
SAIDWARKA APPARTMENT,"2,3,4, Survey No 108/1B",Not Available,Not Available,19.975255,79.259363,P50900002432,Kosara,Chandrapur,Chandrapur,Nagpur,MAHARASHTRA,442406,
SHREE TIRUMALA BHUMIKA APARTMENT- B WING,837/3,Not Available,Not Available,19.986486,73.808693,P51600002388,Nashik,Nashik,Nashik,Nashik,MAHARASHTRA,422011,
PRABHUKUNJ APPARTMENT,S NO 9/1 A PLOT 1,Not Available,Not Available,20.387861,78.094956,P51000007459,Yavatmal (M Cl),Yavatmal,Yavatmal,Amravati,MAHARASHTRA,445001,
PARIJAT C,"PLOT NO 15 16, GUT NO 104, NNAKSHATRAWADI",Not Available,Not Available,19.813203,75.289727,P51500007708,Aurangabad (M Corp.),Aurangabad,Aurangabad,Aurangabad,MAHARASHTRA,431001,
SHREE SAI MEHER ENCLAVE,"PLOT NO. 9A,9B,10,11A,11B,field survey no. 2/3, mauje jewad, pragne badnera, amravati",Not Available,Not Available,19.8902634,75.323544,P50300005253,Amravati (M Corp.),Amravati,Amravati,Amravati,MAHARASHTRA,444606,
Vasukamal Solitaire,5228,Swadhay Bhavan road,Near GST Bhavan,20.993324,75.578272,P49900009627,Jalgaon (M Corp.),Jalgaon,Jalgaon,Nashik,MAHARASHTRA,425001,
United Shalimar Phase 2,"Final plot nos 147 and 151 of TPS I, old CTS nos 307/4, 307/5, 307B and 307A/8, Nashik",SHALIMAR CHOWK,BEHIND NEHRU GARDEN,20.0018792231266,73.7869618406533,P51600001027,Nashik (M Corp.),Nashik,Nashik,Nashik,MAHARASHTRA,422001,
RUDRAKSH,SURVEY NO 322 / 1,MAHYAVASHI FALIYA ROAD,DADRA,20.316422,72.967906,P49600000116,Not Available,Dadra & Nagar Haveli,Dadra & Nagar Haveli,DADRA & NAGAR HAVELI,DADRA & NAGAR HAVELI,396193,
SHRI SAIKRUPA RESIDENCY,"Plot No.1, Field Survey No. 195, Mauje Badnera, Amravati",Not Available,Not Available,20.860092,77.735673,P50300005333,Amravati (M Corp.),Amravati,Amravati,Amravati,MAHARASHTRA,444701,
Bhumi Park,"68, 294, 28, ",Not Available,Not Available,21.12873,79.079405,P50500013079,Nagpur (M Corp.),Nagpur (Urban),Nagpur,Nagpur,MAHARASHTRA,440012,
Shri Pinglai Heights,"46/2, plot no 1 and plot no 2 Survey no 46",Not Available,Not Available,20.965135,77.755108,P50300012628,Amravati (M Corp.),Amravati,Amravati,Amravati,MAHARASHTRA,444601,
HAPPY RISE,415,Not Available,Not Available,21.137135,79.057142,P50500008777,Nagpur (M Corp.),Nagpur (Urban),Nagpur,Nagpur,MAHARASHTRA,440012,
HARI NIKETAN PHASE II,S NO 24A/1,NASHIK,NASHIK,21.144414,79.084353,P51600000859,SANSARI,Nashik,Nashik,Nashik,MAHARASHTRA,422401,
SHAH GOVIND APARTMENT PHASE II, S NO 367/2 PART,Not Available,Not Available,19.860332,73.835934,P51600001700,Bhagur Rural,Nashik,Nashik,Nashik,MAHARASHTRA,422502,
SWAGAT,859/1,NR. LIONS ENGLISH SCHOOL,AMLI,20.272501,73.013455,P49600000104,Not Available,Dadra & Nagar Haveli,Dadra & Nagar Haveli,DADRA & NAGAR HAVELI,DADRA & NAGAR HAVELI,396230,
JAI BHOLE APARTMENT,1 AND 2,Badnera,Badnera,20.94071,77.758002,P50300007689,Amravati (M Corp.),Amravati,Amravati,Amravati,MAHARASHTRA,444601,
AMRUT SAI PLAZA PH 2,CTS NO. 18762,Station MIDC Road,Silk Mill Colony,19.856718,75.309178,P51500011307,Aurangabad (M Corp.),Aurangabad,Aurangabad,Aurangabad,MAHARASHTRA,431001,
SHREE TIRUMALA AASHIYANA APARTMENT,"S NO 900/1/15,17 PLOT NO 19 ,20",NASHIK,NASHIK,19.8902634,75.323544,P51600001825,Nashik,Nashik,Nashik,Nashik,MAHARASHTRA,422009,
MORYA RESIDENCY,SR NO 20 P.T. GUT NO 41/4,Not Available,Not Available,18.5817469,73.9817056,P51000006044,Moha,Yavatmal,Yavatmal,Amravati,MAHARASHTRA,445001,
